,Carpark Name,Carpark Address,Mon-Fri before 5/6pm,Mon-Fri after 5/6pm,Sat,Sun/Public Holiday,Latitude,Longitude
0,Lee Kong Chian Reference Library (National Library Board),"100 Victoria Street, S(188064)","\$1.07 for 1st 30min, \$0.035 for next subsequent min from 7am to 7pm",\$0.017/min from 7pm to 11.29pm,Charges same as weekdays,\$0.017/min from 7am to 11.29pm,1.2975132,103.8539367
1,National Skin Centre,"1 Mandalay Road, S(308205)","\$2.20 for 1st hr, \$0.10 for next subsequent 5min from 8am to 5pm",Carpark closed,Carpark closed,Carpark closed,1.3200731,103.8491307
2,National University Hospital (NUH),"5 Lower Kent Ridge Road, S(119074)",\$0.035/min from 12midnight to 12midnight the following day,\$0.035/min from 12midnight to 12midnight the following day,Charges same as weekdays,Charges same as weekdays,1.2942111,103.78276159999999
3,Negara Hotel,"10 Claymore Road, S(229540)","\$5.00 for 1st hr, \$1.50 for next subsequent 30min from 7am to 5pm",\$5.00/entry from 5pm to 7am the following day,Charges same as weekdays,\$5.00/entry from 7am to 7am the following day,1.3076066000000002,103.8301208
4,Northpoint Shopping Centre,"930 Yishun Avenue 2, S(769098)","\$1.20 for 1st hr, \$0.80 for next subsequent 30min from 7am to 1am the following day","\$1.20 for 1st hr, \$0.80 for next subsequent 30min from 7am to 1am the following day",Charges same as weekdays,Charges same as weekdays,1.4295853,103.8360393
5,Novena Gardens,"273 Thomson Road, S(307644)","\$2.40 for 1st hr, \$0.90 for next subsequent 30min from 7am to 5pm","\$2.40 for 1st hr, \$0.90 for next subsequent 30min from 5pm to 7am the following day",Charges same as weekdays,Charges same as weekdays,1.3202859999999998,103.842021
6,Velocity @ Novena Square,"238 Thomson Road, S(307683)","\$1.60 for 1st hr, \$0.50 for next subsequent 15min from 6am to 6pm",\$2.50/entry from 6pm to 6am the following day,"\$2.50 for 1st 3hr, \$0.50 for next subsequent 15min from 6am to 6pm, \$2.50/entry from 6pm to 6am the following day","\$2.50 for 1st 3hr, \$0.50 for next subsequent 15min from 6am to 6pm, \$2.50/entry from 6pm to 6am the following day",1.3199825,103.8438568
7,Novena Villa,"275 Thomson Road, S(307645)","\$1.00 for 1st hr, \$0.60 for next subsequent 30min from 8am to 5pm","\$1.00 for 1st hr, \$0.60 for next subsequent 30min from 5pm to 8am the following day",Charges same as weekdays,Charges same as weekdays,1.3210271,103.8417066
8,"National Cancer Centre, Singapore (NCCS)","11 Hospital Drive, S(169610)",HDB parking rates from 8.30am to 10pm,Free parking from 10pm to 8.30am the following day,Charges same as weekdays,Charges same as weekdays,1.280106,103.837125
9,M Hotel,"81 Anson Road, S(079908)",\$2.50/30min from 7am to 6pm,\$5.80/entry from 6pm to 7am the following day,"\$2.50/30min from 7am to 1pm, \$5.80/entry after 1pm to 7am the following day",\$5.80/entry from 7am to 7am the following day,1.2737688,103.845063
10,Marina Mandarin Hotel,"6 Raffles Boulevard, S(039594)","\$2.20 for 1st 2hr, \$1.10 for next subsequent 30min from 7am to 5pm from Mon to Thurs","\$2.20/entry from 5pm to 2am the following day, \$1.10/30min from 2am to 7am from Mon to Thurs","\$2.40 for 1st 2hr, \$1.20/hr for next subsequent 2hr, \$1.40/30min from 7am to 2am the following day, \$1.10/30min from 2am to 7am from Fri to Sun","\$2.40 for 1st 2hr, \$1.20/hr for next subsequent 2hr, \$1.40/30min from 7am to 2am the following day, \$1.10/30min from 2am to 7am from Fri to Sun",1.2914468,103.8578782
11,Marina Square,"6 Raffles Boulevard, S(039594)","\$2.20 for 1st 2hr, \$1.10 for next subsequent 30min from 7am to 5pm from Mon to Thurs","\$2.20/entry from 5pm to 2am the following day, \$1.10/30min from 2am to 7am from Mon to Thurs","\$2.40 for 1st 2hr, \$1.20/hr for next subsequent 2hr, \$1.40/30min from 7am to 2am the following day, \$1.10/30min from 2am to 7am from Fri to Sun","\$2.40 for 1st 2hr, \$1.20 for next subsequent 2hr, \$1.40/30min from 7am to 2am the following day, \$1.10/30min from 2am to 7am from Fri to Sun",1.2914468,103.8578782
12,Manulife Centre,"51 Bras Basah Road, S(189554)","\$2.40 for 1st hr, \$1.45 for next subsequent 30min from 7.01am to 5.00pm",\$2.90/entry from 5.01pm to 7.00am the following day,Charges same as weekdays,\$2.90/4hr block from 7.01am to 7.00am the following day,1.2979025,103.8501579
13,Peninsula Plaza,"111 North Bridge Road, S(179098)",Season Parking Only,Season Parking Only,Season Parking Only,Season Parking Only,1.2923118,103.85080479999999
14,People's Park Centre,"101 Upper Cross Street, S(058357)",\$1.605/30min from 7am to 5pm,\$2.675/entry from 5pm to 7am the following day,Charges same as weekdays,Charges same as weekdays,1.2857964,103.8440022
15,OCBC Centre,"65 Chulia Street, S(049513)",\$2.20/30min from 6am to 6pm,\$3.30/entry from 6pm to 6am the following day,\$3.30/entry from 6am to 6am the following day,\$3.30/entry from 6am to 6am the following day,1.2854622,103.8492265
16,OCBC Tampines Centre 2,"31 Tampines Avenue 4, S(529680)",Private Car Park,Private Car Park,Private Car Park,Private Car Park,1.3520931,103.9424071
17,Odeon Katong Shopping Centre,"11 East Coast Road, S(428722)",\$1.20/hr from 8am to 5pm,\$2.50/entry from 5pm to 8am the following day,Charges same as weekdays,\$2.50/entry from 8am to 8am the following day,1.3045527,103.9019502
18,Orchard Point,"160 Orchard Road, S(238842)","\$2.00 for 1st 1hr, \$1.50 for next subsequent 30min from 8am to 9.59pm","\$2.00 for 1st hr, \$1.50 for next subsequent 30min from 10pm to 7.59am the following day",Charges same as weekdays,Charges same as weekdays,1.3014668,103.8405561
19,Fullerton Hotel,"1 Fullerton Square, S(049178)",\$1.07/10min from 7.01am to 6pm,"\$5.00/entry from 6.01pm to 12midnight, Additional \$7.00/entry from 12.01am to 7am the following day","\$5.00/entry from 7.01am to 12midnight the following day, Additional \$7.00/entry from 12.01am to 7am the following day","\$5.00/entry from 7.01am to 12midnight the following day, Additional \$7.00/entry from 12.01am to 7am the following day",1.2863499,103.853043
20,Claymore Connect,"442 Orchard Road, S(238879)","\$3.00 for 1st hr, \$1.50 for next subsequent hr from 7am to 6pm",\$5.50/entry from 6pm to 7am the following day,Charges same as weekdays,\$5.50/entry from 7am to 7am the following day,1.3076475,103.82849940000001
21,Orchard Parade Hotel,"1 Tanglin Road, S(247905)","\$5.00 for 1st hr, \$1.50 for next subsequent 30min from 7am to 6pm",\$5.00/entry from 6pm to 7am the following day,Charges same as weekdays,Charges same as weekdays,1.3066294,103.8276686
22,Orchard Plaza,"150 Orchard Road, S(238841)",\$1.39/30min from 7am to 5pm,"\$3.85 for 1st 3hr, \$1.39 for next subsequent 30min from 5pm to 7am the following day",Charges same as weekdays,Charges same as weekdays,1.3010249,103.8410995
23,Orchard Towers,"400 Orchard Road, S(238875)",\$5.00/hr from 7am to 5.59pm,"\$9.00/entry from 6pm to 1.59am the following day, \$9.00/entry from 2am to 6.59am the following day",Charges same as weekdays,"\$9.00/entry from 7am to 1.59am the following day, \$9.00/entry from 2am to 6.59am the following day",1.3069708999999998,103.8291646
24,Oriental Plaza,"291 New Bridge Road, S(088756)","\$2.30 for 1st hr, \$1.50 for next subsequent 30min from 8am to 5pm",\$2.50/entry from 5pm to 7.59am the following day,Charges same as weekdays,Charges same as weekdays,1.281865,103.842016
25,Mandarin Oriental Singapore,"5 Raffles Avenue, S(039797)",Valet parking at \$15.00 per entry,Valet parking at \$15.00 per entry,Charges same as weekdays,Charges same as weekdays,1.290653,103.85834190000001
26,Novotel Clarke Quay,"177A River Valley Road, S(179031)",\$1.28/hr from 7am to 6pm,\$3.28/entry from 6pm to 7am the following day,Charges same as weekdays but \$3.21/entry after 1pm,Charges same as weekdays but \$3.28/entry from 1pm to 7am the following day,1.2916066000000002,103.8450022
27,NTUC Income Centre,"75 Bras Basah Road, S(189557)",\$1.10/30min from 7am to 5pm,"\$2.14/entry from 5pm to 11pm, Car Park closed after 11pm daily",Charges same as weekdays,"\$2.14/entry from 7am to 11pm, Car Park closed after 11pm daily",1.296451,103.851586
28,NTUC Income Tampines Point,"2 Tampines Central 6, S(529483)","\$1.50/hr for 1st hr, \$0.75 for next subsequent 30min from 6am to 6pm",\$2.50/entry from 6pm to 6am the following day,Charges same as weekdays,\$2.50/entry from 6am to 6am the following day,1.3526533,103.94245169999999
29,NTUC Prinsep House,"30 Prinsep Street, S(188647)",\$1.25/30min from 7am to 5.59pm,"\$2.80/entry from 6pm to 11.59pm, \$5.00/entry from 12midnight to 6.59am the following day",Charges same as weekdays,Charges same as weekdays,1.2990549,103.8494852
30,NUS Car Park 3B - Kent Vale,Kent Ridge Crescent,Carpark closed,Carpark closed,Carpark closed,Carpark closed,1.2979348,103.773175
31,NUS Car Park 2A - In front of Block E3A,Engineering Drive 1,"*\$0.0214/min from 8.30am to 7.30pm, maximum charge of \$1.284 for vehicles entering from 6pm to 7.30pm",*Free parking from 7.31pm to 8.29am the following day,"*\$0.0214/min up to a maximum charge of \$2.568 from 8.30am to 5pm, free parking from 5.01pm to 8.29am the following day",*Free parking whole day from 8.30am to 8.29am the following day,1.3005066,103.7715314
32,Costa Sands Resort (Downtown East),"1 Pasir Ris Close, S(519599)","\$0.024/min from 12.01am to 4.59pm, maximum charge of \$12.50/day from Mon to Thurs (except School/Public Holidays and Eve of Public Holidays)","\$2.40/entry from Mon to Thurs, \$3.40/entry on Fri to Sun and eve of public holidays from 5pm to 12midnight","\$0.024/min from 12.01am to 4.59pm, maximum charge of \$16/day from Fri to Sun, eve of public holidays and gazette School Holidays","\$0.024/min from 12.01am to 4.59pm, maximum charge of \$16/day from Fri to Sun, eve of public holidays and gazette School Holidays",1.3777541000000002,103.9548264
33,Plaza Singapura,"68 Orchard Road, S(238839)","\$1.28 for 1st hr, \$0.43 for next subsequent 15min from 12midnight to 5.59pm the following day on Mon to Fri","\$2.57/entry from 6pm to 11.59pm from Mon to Thur, \$2.57/entry from 6pm to 2.59am the following day on Fri and Eve of PH","\$2.57 for 1st 2hr, \$0.43 for next subsequent 15min from 3am to 5.59pm, \$2.57/entry from 6pm to 2.59am the following day","\$2.57 for 1st 2hr, \$0.43 for next subsequent 15min from 3am to 5.59pm, \$2.57/entry from 6pm to 11.59pm",1.3007913999999998,103.84499759999999
34,PARKROYAL on Beach Road,"7500A Beach Road, S(199591)","\$2.50 for 1st hr, \$3.00 for next subsequent hr from 7am to 5pm",\$2.50/entry from 5pm to 7am the following day,"\$2.50 for 1st hr, \$3.00 for next subsequent hr from 7am to 1pm, \$2.50/entry from 1pm to 7am the following day",\$2.50/entry from 7am to 7am the following day,1.2998065,103.86066540000002
35,One Raffles Place,"1 Raffles Place, S(048616)",\$2.62/30min from 7am to 5pm,\$3.53/entry from 5pm to 7am the following day,\$3.75/entry from 7am to 7am the following day,\$2.35/entry from 7am to 7am the following day,1.2844023999999998,103.8509818
36,East Coast Park (Carpark E1),East Coast Park Service Road,HDB / URA parking rates,HDB / URA parking rates,HDB / URA parking rates,HDB / URA parking rates,1.3073011,103.92962259999999
37,Pacific Plaza,"9 Scotts Road, S(228210)",\$1.50/30min from 8am to 6pm,"\$3.00 for 1st 2hr, \$1.00 for next subsequent 30min from 6pm to 8am the following day",Charges same as weekdays,"\$3.00 for 1st 2hr, \$1.00 for next subsequent 30min from 8am to 8am the following day",1.3065642,103.83206259999999
38,Palais Renaissance,"390 Orchard Road, S(238871)","\$3.85 for 1st hr, \$1.95 for subsequent 30min from 7.01am to 5pm","\$4.60/entry from 5.01pm to 1am the following day, \$1.80/hr from 1.01am to 7am",Charges same as Weekdays,"\$4.60/4hr from 7.01am to 1am the following day, \$1.80/hr from 1.01am to 7am",1.3068412,103.8295622
39,Pan Pacific Hotel,"7 Raffles Boulevard, S(039595)","\$2.20 for 1st 2hr, \$1.10/30min from 7am to 5pm from Mon to Thurs","\$2.20/entry from 5pm to 2am the following day, \$1.10/30min from 2am to 7am from Mon to Thurs","\$2.40 for 1st 2hr, \$1.20/hr for next subsequent 2hr, \$1.40/30min after the 4th hr from 7am to 2am the following day, \$1.10/30min from 2am to 7am from Fri to Sun","\$2.40 for 1st 2hr, \$1.20/hr for next subsequent 2hr, \$1.40/30min after the 4th hr from 7am to 2am the following day, \$1.10/30min from 2am to 7am from Fri to Sun",1.2923002,103.8585988
40,PoMo,"1 Selegie Road, S(188306)","\$3.00 for 1st hr, \$1.50 for next subsequent 30min from 7am to 5.59pm",\$3.50/entry from 6pm to 6.59am the following day,Charges same as weekdays,\$3.50/entry from 7am to 6.59am the following day,1.3002136,103.8491644
41,Paragon,"290 Orchard Road, S(238859)","\$2.90 for 1st hr, \$1.50 for next subsequent 30min from 3am to 6.59pm",\$4.50/entry from 7pm to 2.59am the following day,Charges same as weekdays,"\$2.90 for 1st hr, \$1.50 for next subsequent 30min from 3am to 5.59pm, \$4.50/entry from 6pm to 2.59am the following day",1.3039263,103.83559100000001
42,Paramount Hotel,"25 Marine Parade, S(449536)",\$1.07/hr from 8am to 5pm,\$1.07/hr from 5pm to 8am the following day,Charges same as weekdays,Charges same as weekdays,1.3038008,103.90294820000001
43,Paramount Shopping Centre,"30 East Coast Road, S(428751)",\$0.50/30min,\$2.00/entry,\$2.00/entry,\$2.00/entry,1.3037878,103.9029546
44,Bugis Junction,"200 Victoria Street, S(180021)","\$1.60 for 1st hr, \$0.40 for next subsequent 10min from 8am to 5pm from Mon to Thur","\$2.70/entry from 5pm to 8am the following day from Mon to Thurs, \$2.70 for 1st 2hr, \$0.27 for next subsequent 10min from 5pm to 8am the following day on Fri","\$2.70 for 1st 2hr, \$0.27 for next subsequent 10min from 8am to 8am the following day","\$2.70 for 1st 2hr, \$0.27 for next subsequent 10min from 8am to 8am the following day",1.2995988,103.85567809999999
45,Park Mall,"9 Penang Road, S(238459)",Carpark closed,Carpark closed,Carpark closed,Carpark closed,1.2978753,103.8452072
46,Parklane,"35 Selegie Road, S(188307)","\$3.20 for 1st hr, \$1.60 for next subsequent 30min from 7am to 7pm",\$3.75/entry from 7pm to 12midnight. Additional Overnight Charge at \$3.75/entry from 12midnight to 7am the following day,Charges same as weekdays,\$3.75/entry from 7am to 12midnight,1.3006918,103.8493463
47,Parkview Square,"600 North Bridge Road, S(188778)","\$2.14/hr, \$1.07 for next subsequent 30min from 7am to 5pm",\$5.35/4hr from 5pm to 7am the following day,Charges same as weekdays but \$5.35/4hr from 1pm to 7am the following day,\$5.35/4hr from 7am to 7am the following day,1.3001639999999999,103.85772209999999
48,Parkway Parade,"80 Marine Parade Road, S(449269)","\$1.00 for 1st hr, \$0.40 for subsequent 30min from 6am to 6pm",\$1.50/entry from 6pm to 2am the following day,"\$0.50 for 1st hr, \$0.40 for next subsequent 15min from 6am to 10am, \$1.30 for 1st hr, \$0.40 subsequent 15min from 10am to 6pm, \$2.10/entry from 6pm to 2am the following day","\$0.50 for 1st hr, \$0.40 for next subsequent 15min from 6am to 10am, \$1.30 for 1st hr, \$0.40 subsequent 15min from 10am to 6pm, \$2.10/entry from 6pm to 2am the following day",1.3014083,103.9052872
49,New Parliament House,"1 Parliament Place, S(178880)",\$1.13/30min from 8.01am to 6pm,\$2.06/entry from 6.01pm to 8am the following day,Charges same as weekdays,\$4.12/entry from 8am to 7.59am the following day,1.2890871000000002,103.85083730000001
50,Eunos Technolink,"3 Kaki Bukit Road 1, S(415935)",\$1.07/hr from 8am to 5pm,\$1.07/hr from 5pm to 8am the following day,Charges same as weekdays,Charges same as weekdays,1.3346483,103.9016193
51,Peace Centre,"1 Sophia Road, S(228149)",\$1.39/30min from 7am to 7pm,\$1.50/30min from 7pm to 7am the following day,"\$1.39/30min from 7am to 7pm, \$4.28/entry from 7pm to 7am the following day",\$4.28/entry from 7am to 7am the following day,1.3013293,103.8491921
52,Pearl's Centre,"100 Eu Tong Sen Street, S(059812)",Carpark closed,Carpark closed,Carpark closed,Carpark closed,1.2815257,103.840474
53,Peninsula Excelsior Hotel,"5 Coleman Street, S(179805)","\$3.00 for 1st hr, \$1.80 for next subsequent 30min from 8am to 5pm",\$4.00/entry from 5pm to 8am the following day,Charges same as weekdays,"\$1.50/hr from 8am to 5pm, \$4.00/entry from 5pm to 8am the following day",1.2920153,103.8498618
54,Peninsula Hotel,"3 Coleman Street, S(179804)","\$2.60 for 1st hr, \$1.50 for next subsequent 30min from 8am to 5pm",\$3.00/entry from 5pm to 8am the following day,Charges same as weekdays,\$1.50/hr from 8am to 8am the following day,1.291884,103.8500517
55,Market Street Car Park,"146 Market Street, S(048945)",Carpark closed,Carpark closed,Carpark closed,Carpark closed,1.2818114,103.85011290000001
56,Singapore Marriott Hotel,"320 Orchard Road, S(238865)","\$3.00 for 1st hr, \$0.05/min from 6am to 6pm","\$3.00 for 1st hr, \$0.05/min from 6pm to 6am the following day",Charges same as weekdays,Charges same as weekdays,1.3049283,103.8331385
57,MAS Building,"10 Shenton Way, S(079117)",Season Parking Only,Season Parking Only,Season And Tenant Parking Only,Season And Tenant Parking Only,1.2748177,103.8467157
58,Mediacorp,"Andrew Road, S(299939)",\$1.07/hr up to a maximum charge of \$6.42/day from 7am to 6pm,\$2.14/entry from 6pm to 7.00am the following day,Charges same as weekdays,Charges same as weekdays,1.3364364,103.83324499999999
59,Merchant Square,"1 Angus Street, S(058275)",Season Parking Only,Season Parking Only,Season Parking Only,Season Parking Only,1.2884603,103.843518
60,Mandarin Gallery,"330 Orchard Road, S(238867)","\$3.60 for 1st hr, \$0.06 for next subsequent min from 6am to 6pm","\$3.60 for 1st hr, \$0.04/min from 6pm to 6am the following day",Charges same as weekdays,Charges same as weekdays,1.3035183000000001,103.8347326
61,Midlink Plaza,"122 Middle Road, S(188973)",Carpark not in use,Carpark not in use,Carpark not in use,Carpark not in use,1.299664,103.8530481
62,Midpoint Orchard,"220 Orchard Road, S(238852)",No Car Park,No Car Park,No Car Park,No Car Park,1.3017106,103.838732
63,Millenia Walk (Surface Car Park),"9 Raffles Boulevard, S(039596)","\$4.40 for 1st hr, \$1.65 for subsequent 30min from 7am to 6pm","\$4.40 for 1st 2hr, \$1.65 for subsequent hr from 6pm to 7am the following day","\$4.40 for 1st 2hr, \$1.65 for subsequent hr from 7am to 7am the following day","\$4.40 for 1st 2hr, \$1.65 for subsequent hr from 7am to 7am the following day",1.2927292,103.859401
64,Miramar Hotel,"401 Havelock Road, S(169631)","\$2.68 for 1st hr, \$1.07 for next subsequent 30min from 7am to 5pm",\$3.75/entry from 5pm to 7am the following day,Charges same as weekdays,\$3.75/entry from 7am to 7am the following day,1.28832,103.8374488
65,Mount Alvernia Hospital,"820 Thomson Road, S(574623)","\$2.40 for 1st hr, \$1.30 for next subsequent 30min from 7am to 10pm",\$5.00/entry from 10pm to 7am the following day,Charges same as weekdays,Charges same as weekdays,1.3419083,103.83795479999999
66,Mount Elizabeth Hospital,"3 Mount Elizabeth, S(228510)","\$2.50/30min from 6.30am to 8am, \$3.30/30min from 8am to 11am, \$3.00/30min from 11am to 6.30pm",\$4.00/entry from 6.30pm to 6.30am,Charges same as weekdays,\$4.00/entry from 6.30am to 6.30am the following day,1.3050493,103.83542840000001
67,Mustafa Centre,"145 Syed Alwi Road, S(207704)","1st hr free, \$1.00 for next subsequent 30min from 7am to 7am the following day","1st hr free, \$1.00 for next subsequent 30min from 7am to 7am the following day",Charges same as weekdays,Charges same as weekdays,1.3100896,103.855366
68,Nanyang Academy Of Fine Arts (NAFA),"80 Bencoolen Street, S(189655)",\$2.40/hr from 8am to 9.59pm,\$2.40/hr from 10pm to 7.59am the following day,Charges same as weekdays,Charges same as weekdays,1.299809,103.8512578
69,International Plaza,"10 Anson Road, S(079903)",\$2.20/30min from 7am to 5pm,\$3.00/entry from 5pm to 7am the following day,"\$2.20/30min from 7am to 3pm, \$3.00/entry after 3pm to 7am the following day",\$3.00/entry from 7am to 7am the following day,1.2756998,103.8458098
70,Jelita Cold Storage,"293 Holland Road, S(278628)","1st hr free, \$1.60/hr for next subsequent hr onwards","1st hr free, \$1.60/hr for next subsequent hr onwards",Charges same as weekdays,Charges same as weekdays,1.3175633999999998,103.78588
71,Joo Chiat Complex,"1 Joo Chiat Road, S(420001)",\$0.50/30min from 7am to 7pm,\$0.50/30min from 7pm to 10:30pm,Charges same as weekdays,Charges same as weekdays,1.3156809999999999,103.8988707
72,Junction 8 (Basement Car Park),"9 Bishan Place, S(579837)","\$1.28 for 1st hr, \$0.43 for next subsequent 15min from 12midnight to 5.59pm the following day from Mon to Fri & Eve of PH","\$2.57/entry from 6pm to 11.59pm from Mon to Thurs, \$2.57/entry from 6pm to 2.59am the following day on Fri & Eve of PH","\$2.57 for 1st 2hr, \$0.43 for next subsequent 15min from 3am to 5.59pm, \$2.57/entry from 6pm to 2.59am the following day","\$2.57 for 1st 2hr, \$0.43 for next subsequent 15min from 3am to 5.59pm, \$2.57/entry from 6pm to 11.59pm",1.3505253000000002,103.8486915
73,Junction 8 (Multi-Storey Car Park),"514 Bishan Street 13, S(570514)",\$0.60/30min from 7am to 9pm,\$0.60/30min from 9pm to 7am the following day,"\$0.60/30min from 7am to 3pm, \$0.60/30min from 3pm to 7am the following day",\$0.60/30min from 7am to 7am the following day,1.3501553,103.8497956
74,JCube,"2 Jurong East Central 1, S(609731)","\$1.30 for 1st hr, \$0.40 for next subsequent 15min from 3.30am to 5.59pm",\$2.50/entry from 6pm to 3.29am the following day,Charges same as weekdays,Charges same as weekdays,1.3332858,103.7401865
75,Jurong Point Shopping Centre,"1 Jurong West Central 2, S(648886)","\$1.07 for 1st 2hr, \$1.07 for next subsequent hr from 7am to 5pm","\$2.14 for 1st 2hr, \$1.07 for next subsequent hr from 5pm to 9pm, \$1.07 for 1st 3hr, \$1.07 for next subsequent hr from 9pm to 7am the following day","\$2.14 for 1st 2hr, \$1.07 for next subsequent hr from 7am to 9pm, \$1.07 for 1st 3hr, \$1.07 for next subsequent hr from 9pm to 7am the following day","\$2.14 for 1st 2hr, \$1.07 for next subsequent hr from 7am to 9pm, \$1.07 for 1st 3hr, \$1.07 for next subsequent hr from 9pm to 7am the following day",1.3393411,103.7053874
76,KK Women's and Children's Hospital ,"100 Bukit Timah Road, S(229899)",\$0.047/min from 6am to 6pm,\$2.40/entry from 6pm to 6am the following day,\$2.40/entry from 6am to 12midnight,\$2.40/entry from 6am to 12midnight,1.310615,103.84683559999999
77,112 Katong,"112 East Coast Road, S(428802)","(6am-9.59am) \$0.54 for 1st hr, \$0.16 for subsequent 15min, (10am-5.59pm) \$1.07 for 1st hr, \$0.27 for subsequent 15min","(6pm-10.59pm) \$1.28 for 1st 30min, \$0.65 for subsequent 15min, (11pm-5.59am) \$0.54 for 1st hr, \$0.16 for subsequent 15min","(6am-9.59am) \$0.54 for 1st hr, \$0.16 for subsequent 15min (10am-10.59pm) \$1.28 for 1st 30min, \$0.65 for subsequent 15min (11pm-5.59am) \$0.54 for 1st hr, \$0.16 for subsequent 15min","(6am-9.59am) \$0.54 for 1st hr, \$0.16 for subsequent 15min (10am-10.59pm) \$1.28 for 1st 30min, \$0.65 for subsequent 15min (11pm-5.59am) \$0.54 for 1st hr, \$0.16 for subsequent 15min",1.3051592,103.9050673
78,Katong Plaza,"1 Brooke Road, S(429979)","\$1.50 for 1st hr, \$0.80 for next subsequent 30min from 6am to 6pm","\$1.00 for 1st hr, \$0.50 for next subsequent 30min from 6pm to 6am the following day",Charges same as weekdays,Charges same as weekdays,1.3042056999999998,103.9038636
79,Katong Shopping Centre,"865 Mountbatten Road, S(437844)",\$1.45/hr from 7.01am to 6pm,\$2.50/entry from 6.01pm to 7am the following day,Charges same as weekdays,\$2.50/entry from 7.01am to 7am the following day,1.3039094999999998,103.90117509999999
80,Enterprise One,"1 Kaki Bukit Road 1, S(415934)","30min free, \$0.70 for next subsequent 30min","30min free, \$0.70 for next subsequent 30min",Charges same as weekdays,Charges same as weekdays,1.3335939,103.90250879999999
81,Keppel Towers,"10 Hoe Chiang Road, S(089315)",\$3.00/hr from 8am to 5pm,\$3.00/hr from 5pm to 8am the following day,Charges same as weekdays,Charges same as weekdays,1.2743052,103.8420655
82,Keypoint,"371 Beach Road, S(199597)",Carpark closed,Carpark closed,Carpark closed,Carpark closed,1.302363,103.8624183
83,Kwong Wai Shui Hospital,"705 Serangoon Road, S(328127)",Free Parking,Free Parking,Free Parking,Free Parking,1.317285,103.85932690000001
84,Concorde Hotel Singapore,"100 Orchard Road, S(238840)","\$2.14 for 1st hr, \$1.39 for next subsequent 30min from 7am to 6pm",\$3.75/entry from 6pm to 7am the following day,Charges same as weekdays,\$3.75/entry from 7am to 7am the following day,1.300784,103.84234090000001
85,Liang Court,"177 River Valley Road, S(179030)",\$1.28/hr from 7am to 6pm,\$3.21/entry 6.01pm to 6.59am the following day,\$3.21/entry from 6am to 6am the following day,\$3.21/entry from 6am to 6am the following day,1.2915874,103.8447075
86,Liat Towers,"541 Orchard Road, S(238881)","\$2.50 for 1st hr, \$1.30 for next subsequent 30min from 7am to 6pm",\$3.80/entry from 6pm to 12midnight,Charges same as weekdays,Charges same as weekdays,1.3051127,103.8306737
87,Health Promotion Board,"3 Second Hospital Avenue, S(168937)",\$0.036/min from 7am to 10pm,\$2.14/entry from 10pm to 7am the following day,Charges same as weekdays,"\$0.018/min from 7am to 10pm, \$2.14/entry from 10pm to 7am the following day",1.279555,103.838369
88,Lippo Centre,"78 Shenton Way, S(079120)",Season Parking Only,Season Parking Only,Season Parking Only,Season Parking Only,1.2731276000000002,103.84509840000001
89,Lot One,"21 Choa Chu Kang Avenue 4, S(689812)","\$1.28 for 1st hr, \$0.43 for next subsequent 15min from 12midnight to 5.59pm",\$2.57/entry from 6pm to 2.59am the following day,"\$2.57 for 1st 2hr, \$0.43 for next subsequent 15min from 3am to 5.59pm, \$2.57/entry from 6pm to 2.59am the following day","\$2.57 for 1st 2hr, \$0.43 for next subsequent 15min from 3am to 5.59pm, \$2.57/entry from 6pm to 11.59pm",1.384848,103.745046
90,Loyang Point,"258 Pasir Ris Street 21, S(510258)",\$0.50/30min from 7am to 5pm,"\$1.00/entry from 5pm to 12midnight, \$2.00/entry from 12midnight to 7am the following day",Charges same as weekdays,\$1.00/entry from 7am to 7am the following day,1.3668286,103.96462530000001
91,Lucky Plaza,"304 Orchard Road, S(238863)","\$1.93 for 1st hr, \$1.28 for next subsequent 30min from 7am to 4.59pm",\$3.38/entry from 5pm to 6.59am the following day,Charges same as Weekdays,"\$1.93 for 1st hr, \$1.28 for next subsequent 30min from 7am to 9.59pm. \$3.38/entry from 10pm to 6.69am on Sunday, \$4.00/entry from 7am to 6.59am the following day on Public Holiday",1.3045755,103.83403440000001
92,Grand Hyatt Singapore,"10 Scotts Road, S(228211)","\$3.21 for 1st hr, \$1.07 for next subsequent 30min from 4am to 4.59pm",\$5.35/entry from 5pm to 3.59am the following day,Charges same as weekdays,\$5.35/entry from 4am to 3.59am the following day,1.3063489,103.8332473
93,Grand Mercure Roxy Hotel,"50 East Coast Road, S(428769)",\$1.60/hr from 6am to 6am the following day,\$1.60/hr from 6am to 6am the following day,Charges same as weekdays,Charges same as weekdays,1.3039693,103.90426590000001
94,Grand Park City Hall,"10 Coleman Street, S(179809)","\$3.28 for 1st hr, \$1.55 for next subsequent 30min from 8am to 5pm",\$5.35/entry from 5pm to 8am the following day,Charges same as weekdays,Charges same as weekdays,1.2925294,103.8500981
95,Great Eastern @ Changi,"200 Changi Road, S(419734)",Private Car Park,Private Car Park,Private Car Park,Private Car Park,1.3172306,103.9034857
96,The Chevrons,"48 Boon Lay Way, S(609961)",\$1.00/hr from 7am to 4.59pm from Mon to Thurs,"\$2.00/entry from 5pm to 6.59am the following day from Mon to Thurs, \$3.00/entry from 5pm to 6.59am the following day on Fri","\$1.00/hr from 7am to 4.59pm, \$3.00/entry from 5pm to 6.59am the following day",\$2.00/entry from 7am to 6.59am the following day,1.3309643,103.7486882
97,Great World City,"1 Kim Seng Promenade, S(237994)",\$1.66/hr from 6.01am to 5pm,\$3.53/entry from 5.01pm to 6am the following day,\$1.77/hr up to a maximum cap of \$6.00/entry from 6.01am to 6am the following day,\$1.77/hr up to a maximum cap of \$6.00/entry from 6.01am to 6am the following day,1.2936326,103.83196650000001
98,Greenridge Shopping Centre,"524A Jelapang Road, S(671524)","\$0.60/30min from 7am to 12pm, free parking from 12pm to 2pm, \$0.60/30min from 2pm to 5pm","\$1.00/entry from 5pm to 12midnight, \$2.00/entry from 12midnight to 7am the following day",Charges same as weekdays,\$1.00/entry from 7am to 7am the following day,1.3853183999999998,103.7662365
99,Guthrie House,"1 Fifth Avenue, S(268802)","\$0.02/min from 8am to 12pm \$0.02/min from 2pm to 6pm for the 1st 30min, \$0.05/min thereafter. \$0.08/min from 12pm to 2pm",\$0.06/min up to a maximum charge of \$3.60 from 6pm to 8am the following day,"\$0.04/min for 1st 30min, \$0.02/min for next subsequent min",\$2.00/entry from 8am to 8am the following day,1.3309189,103.7957304
100,HarbourFront Centre,"1 Maritime Square, S(099253)","\$1.40 for 1st hr, \$0.70 for next subsequent 30min from 7am to 6pm","\$2.60/entry from 6pm to 1am the following day, \$2.04/hour from 1am to 7am the following day",Charges Same as Weekdays,Charges Same as Weekdays,1.2641701,103.82026450000001
101,HDB Hub (Toa Payoh),"480 Toa Payoh Lorong 6, S(310480)",HDB / URA parking rates from 7am to 6pm,"\$1.50/entry from 6pm to 10.30pm, \$5.00/entry from 10.30pm to 7am the following day",Charges same as weekdays,"\$1.50/entry from 7am to 10.30pm, \$5.00/entry from 10.30pm to 7am the following day",1.3325138,103.8485343
102,High Street Centre,"1 North Bridge Road, S(179094)",\$3.21/hr from 7am to 5pm,\$3.21/entry from 5pm to 7am the following day,Charges same as weekdays,\$3.21/entry from 7am to 7am the following day,1.2900089,103.8494332
103,Hilton Hotel,"581 Orchard Road, S(238883)","\$7.00 for 1st hr, \$3.50 for next subsequent 30min from 7am to 6pm",\$7.00/entry from 6pm to 7am the following day,Charges same as weekdays,\$7.00/entry from 7am to 7am the following day,1.3053947,103.8294932
104,Hitachi Tower / Caltex House,"16 Collyer Quay, S(049318)",\$3.00/30min from 7.30am to 6.29pm,\$3.50/entry from 6.30pm to 7.29am the following day,"\$2.75/30min from 7.30am to 12.59pm, 3.30/entry from 1pm to 7.29am the following day",\$3.50/entry from 7.30am to 7.29am the following day,1.2842186000000002,103.852603
105,Lumiere,"2 Mistri Road, S(079624)",\$2.50/hr from 12 midnight to 6pm,\$3.00/entry from 6pm to 12midnight,"Charges same as weekdays, but \$3.00/entry after 1pm",\$3.00/entry,1.2743316,103.8460969
106,Holiday Inn Hotel - Parkview,"11 Cavenagh Road, S(229616)","\$3.00 for 1st hr, \$1.50 for next subsequent 30min from 7am to 5pm","\$3.00 for 1st hr, \$1.50 for next subsequent 30min from 5pm to 7am the following day",Charges same as weekdays,Charges same as weekdays,1.3023481,103.84100079999999
107,Holland Road Shopping Centre,"211 Holland Avenue, S(278967)",\$2.20/30min from 12midnight to 8.59pm from Mon-Thurs,\$4.80/entry from 9pm to 12midnight the following day from Mon-Thurs,"\$2.20/30min from 12midnight to 9pm, \$5.80/entry from 9pm to 12midnight the following day from Friday to Sunday","\$2.20/30min from 12midnight to 9pm, \$5.80/entry from 9pm to 12midnight the following day from Friday to Sunday",1.3103846000000001,103.79537859999999
108,Hong Leong Building,"16 Raffles Quay, S(048581)",\$3.00/30min from 7am to 5.59pm,\$2.00/hr from 6pm to 6.59am the following day,"\$3.00/30min from 7am to 12.59pm, \$2.00/hr from 1pm to 6.59am the following day",\$2.00/hr from 7am to 6.59am the following day,1.2814094999999999,103.85101850000001
109,Hotel Asia,"37 Scotts Road, S(228229)",Free parking for Hotel's guests,Free parking for Hotel's guests,Free parking for Hotel's guests,Free parking for Hotel's guests,1.311453,103.83592800000001
110,Singapore Art Museum,"71 Bras Basah Road, S(189555)",Limited Free Parking Lots,Limited Free Parking Lots,Not for public,Not for public,1.2974135,103.8510244
111,Singapore Tourism Board (STB),"1 Orchard Spring Lane, S(247729)","\$2.40 for 1st hr, \$1.20 for next subsequent 30min from 8.30am to 6pm",Car Park closed after 6pm,Closed,Closed,1.3038034,103.8240486
112,Hotel Rendezvous,"9 Bras Basah Road, S(189559)",\$3.70/hr from 7am to 5pm,\$3.70/hr from 5pm to 7am the following day,Charges same as weekdays,Charges same as weekdays,1.2985243999999998,103.8492987
113,Hotel Royal Queens,"12 Queen Street, S(188553)",\$1.28/30min from 8am to 6pm,\$3.21/entry 6pm to 8am the following day,Charges same as weekdays,\$3.21/entry from 8am to 8am the following day,1.297675,103.85216
114,Hotel Windsor,"401 Macpherson Road, S(368125)",Carpark not in use,Carpark not in use,Carpark not in use,Carpark not in use,1.3317581,103.87948309999999
115,Hougang Mall,"90 Hougang Avenue 10, S(538766)","\$1.20 for 1st hr, \$0.70/30min for the 2nd hr, \$1.00/30min for parking above 2hr from 7am to 12midnight","\$1.20 for 1st hr, \$0.70/30min for the 2nd hr, \$1.00/30min for parking above 2hr from 7am to 12midnight","\$1.30 for 1st hr, \$0.70/30min for the 2nd hr, \$1.00/30min for parking above 2hr from 7am to 12midnight","\$1.30 for 1st hr, \$0.70/30min for the 2nd hr, \$1.00/30min for parking above 2hr from 7am to 12midnight",1.3724306999999998,103.8937797
116,Hougang 1,"1 Hougang Street 91, S(538692)","\$1.34 for 1st hr, \$0.81 for next subsequent 30min from 7am to 5pm","\$1.34 for 1st hr, \$0.81 for next subsequent 30min from 5pm to 7am the following day",Charges same as weekdays,Charges same as weekdays,1.3759108999999998,103.87933000000001
117,ICA Building,"10 Kallang Road, S(208718)",\$0.80/30min from 8am the 5pm,"\$0.60/30min from 5pm to 7am the following day, Parking charges capped at \$5.00 from 10.30pm to 7am the following day",Charges same as weekdays,"\$0.60/30min from 7am to 10.30pm the following day, Parking charges capped at \$5.00 from 10.30pm to 7am the following day",1.306686,103.862452
118,IKEA Alexandra,"317 Alexandra Road, S(159965)",\$1.50/30min from 8am to 5pm,\$1.50/30min from 5pm to 8am the following day,Charges same as weekdays,Charges same as weekdays,1.288155,103.805666
119,IMM Building,"2 Jurong East Street 21, S(609601)","1st 2hr free \$1.07 for 3rd hr, \$0.30 for next subsequent 15min","1st 2hr free, \$1.07 for 3rd hr, \$0.30 for next subsequent 15min","\$1.07 for 1st 2hr, \$1.07 for 3rd hr, \$0.30 for next subsequent 15min","\$1.07 for 1st 2hr, \$1.07 for 3rd hr, \$0.30 for next subsequent 15min",1.3351706,103.746408
120,Institute Of Mental Health (IMH),"10 Buangkok View, S(539747)",Free Parking,Free Parking,Free Parking,Free Parking,1.3821973,103.88472940000001
121,Inter-continental Singapore Hotel,"80 Middle Road,S(88966)","\$1.60 for 1st hr, \$0.40 for next subsequent 10min from 8am to 5pm, \$2.50/entry from 5pm to 8am the following day from Mon to Thurs","\$1.60 for 1st hr, \$0.40 for next subsequent 10min from 8am to 5pm, \$2.70 for 1st 2hr, \$0.27 for next subsequent 10min from 5pm to 8am the following day on Fri","\$2.70 for 1st 2hr, \$0.27 for next subsequent 10min from 8am to 8am the following day","\$2.70 for 1st 2hr, \$0.27 for next subsequent 10min from 8am to 8am the following day",1.2994296,103.85566949999999
122,International Building,"360 Orchard Road, S(238869)",Carpark not in use,Carpark not in use,Carpark not in use,Carpark not in use,1.3061673,103.83101020000001
123,Grand Copthorne Waterfront Hotel,"392 Havelock Road, S(169663)","\$3.75 for 1st hr, \$2.14 for next subsequent hr from 7am to 5pm",\$4.28/entry from 5pm to 7am the following day,Charges same as weekdays,\$4.28/entry from 7am to 7am the following day,1.2903334,103.8352006
124,Chijmes (Valet Parking),"30 Victoria Street, S(187996)",Not Applicable,"\$4.00/entry for Valet charge, Additional \$4.00/hr for carpark charges applies from 6.00pm to 7.59am the following day",Charges same as weekdays,Charges same as weekdays,1.2953653,103.852459
125,Chinatown Point,"133 New Bridge Road, S(059413)",\$1.20/30min from 7.01am to 5pm,\$2.50/entry from 5.01pm to 7am the following day,Charges same as weekdays,\$2.50/entry from 7.01am to 7am the following day,1.285362,103.84502109999998
126,Cineleisure Orchard,"8 Grange Road, S(239695)","\$2.40 for 1st hr, \$1.40 for next subsequent 30min from 7am to 5.59pm","\$4.50 for 1st 3hr, \$1.60 for next subsequent 30min from 6pm to 6.59am the following day","\$4.50 for 1st 3hr, \$1.60 for next subsequent 30min from 7am to 7.59am the following day","\$4.50 for 1st 3hr, \$1.60 for next subsequent 30min from 8am to 7.59am the following day",1.3015317,103.8364047
127,City Bayview Hotel,"30 Bencoolen Street, S(189621)","\$2.40 for 1st hr, \$1.20 for next subsequent 30min from 7am to 5pm","\$3.00/entry from 5pm to 11pm, \$4.00/entry from 11pm to 7am the following day",Charges same as weekdays,"\$3.00/entry from 7am to 11pm, \$4.00/entry from 11pm to 7am the following day",1.2985316999999998,103.8503005
128,Clarke Quay,"3 River Valley Road, S(179019)","\$1.28 for 1st hr, \$0.43 for next subsequent 15min from 7am to 12.29pm","\$1.28 for 1st hr, \$0.43 for next subsequent 15min from 1.30pm to 6.59am the following dayto a maximum of \$6.42 from 1.30pm to 6.59am the following day","\$1.28 for 1st hr, \$0.43 for next subsequent 15min from 7am to 6.59am the following day",\$2.68/entry from 7am to 6.59am the following day,1.2902865,103.844957
129,Clifford Centre,"24 Raffles Place, S(048621)",\$5.00/hr from 7am to 5pm \$2.50/30mins,\$3.00/entry from 5pm to 11pm,Charges same as weekdays,Charges same as weekdays,1.2837597,103.8523004
130,Compass One,"1 Sengkang Square, S(545078)","\$1.40 for 1st 1hr, \$0.70 for next subsequent 30min from 7am to 11pm","\$1.40 for 1st 1hr, \$0.70 for next subsequent 30min from 7am to 11pm",Charges same as weekdays,Charges same as weekdays,1.3922141000000001,103.8951203
131,Concorde Shopping Centre,"317 Outram Road, S(169075)",\$1.93/hr from 7am to 5pm,\$3.85/entry from 5pm to 7am the following day,Charges same as weekdays,\$3.85/entry from 7am to 7am the following day,1.2889661,103.8341897
132,Conrad Centennial Singapore (Basement Car Park),"2 Temasek Boulevard, S(038982)","\$3.30 for 1st hr, \$1.10 for next subsequent 30min from 7am to 6pm",\$2.20/entry from 6pm to 7am the following day,"\$2.20 for 1st 2hr, \$1.10 for next subsequent hr from 7am to 7am the following day","\$2.20 for 1st 2hr, \$1.10 for next subsequent hr from 7am to 7am the following day",1.2935074,103.85879870000001
133,Copthorne King's Hotel,"403 Havelock Road, S(169632)","\$4.00 for 1st hr, \$1.50 for next subsequent 30min from 7am to 12midnight","\$4.00 for 1st hr, \$2.00 for next subsequent 30min from 12midnight to 7am the following day",Charges same as weekdays,Charges same as weekdays,1.2882649,103.8366582
134,Copthorne Orchid Hotel,"214 Dunearn Road, S(299526)",Carpark not in use,Carpark not in use,Carpark not in use,Carpark not in use,1.324121,103.824148
135,CPF Building Robinson Road,"79 Robinson Road, S(068897)","\$1.50/30min for the 1st 2hr, \$2.00/30min thereafter from 6am to 6pm","Car Park closed after 5pm, vehicle remaining from 5pm onward will be charged an additional flat rate of \$5.00",Closed,Closed,1.2774780000000001,103.8481197
136,CPF Tampines Building Car Park,"1 Tampines Central 5, S(529508)",Private Car Park,Private Car Park,Private Car Park,Private Car Park,1.3531218999999999,103.9436755
137,Grand Park Orchard,"270 Orchard Road, S(238857)","\$3.50 for 1st hr, \$1.50/subsequent 30min from 8am to 5pm daily including Public Holidays",\$5.00/entry from 5pm to 8am the following day daily including Public Holidays,Same Charges as Weekdays,Same Charges as Weekdays,1.3032438999999998,103.8362719
138,OUE Downtown 1,"6 Shenton Way, S(068809)",*,*,*,*,1.2767434,103.8482644
139,OUE Downtown 2,"6 Shenton Way, S(068809)",\$2.57/30min from 8am to 6pm,\$2.57/entry from 6pm to 11pm,"\$2.57/30min or part thereof from 6am to 1pm, \$2.57/entry from 1pm to 11pm",\$2.57/entry from 6am to 11pm,1.2767434,103.8482644
140,Delfi Orchard,"402 Orchard Road, S(238876)","\$3.64 for 1st hr, \$2.35 for next subsequent 30min from 8am to 6pm",\$5.35/entry from 6pm to 11pm,Charges same as weekdays,\$5.35/entry from 8am to 11pm,1.3071536,103.8286012
141,Parkway East Hospital,"321 Joo Chiat Place, S(427990)","\$2.80 for 1st hr, \$1.40 for next subsequent 30min from 8am to 5pm","\$2.80 for 1st hr, \$1.40 for next subsequent 30min from 5pm to 8am the following day",Charges same as weekdays,Charges same as weekdays,1.3151883999999998,103.90902740000001
142,Eastgate ,"46 East Coast Road, S(428766)","\$1.20 for 1st hr, \$1.00 for next subsequent 30min from 8am to 6pm",\$2.50/entry from 6pm to 8am the following day,Charges same as weekdays,Charges same as weekdays,1.3043753999999999,103.9033514
143,Eastpoint Mall,"3 Simei Street 6, S(528833)","\$1.20 for 1st hr, \$0.30 for next subsequent 15min from 7am to 5pm","\$1.20 for 1st hr, \$0.30 for next subsequent 15min from 5pm to 7am the following day",Charges same as weekdays,Charges same as weekdays,1.3427285,103.9530112
144,Elias Mall,"625 Elias Road, S(510625)",\$0.60/30min from 8am to 5pm,\$1.10/entry from 5pm to 8am the following day,Charges same as weekdays,\$1.10/entry from 8am to 8am the following day,1.3785415,103.94195429999999
145,Elizabeth Hotel,"24 Mount Elizabeth, S(228518)","\$4.00 for 1st hr, \$2,00 for next subsequent 30min from 7am to 6pm",\$5.00/entry from 6pm to 7am the following day,Charges same as weekdays,\$5.00/entry from 7am to 7am the following day,1.307903,103.83551
146,Eminent Plaza,"195 Lavender Street, S(338758)",Carpark not in use,Carpark not in use,Carpark not in use,Carpark not in use,1.3132513,103.86024350000001
147,Eng Cheong Tower,"5611 North Bridge Road, S(198782)",Season Parking Only,Season Parking Only,Season Parking Only,Season Parking Only,1.3061798999999998,103.86398100000001
148,Environment Building,"40 Scotts Road, S(228231)",Private Car Park,Private Car Park,Private Car Park,Private Car Park,1.3105921,103.83626629999999
149,Esplanade Mall,"8 Raffles Avenue, S(039802)",\$2.20/hr from 6am to 6pm everyday inclusive of Public Holidays,"\$6.50/entry from 6pm to 10pm, \$2.20/entry from 10pm to 6am the following day everyday inclusive of Public Holidays",Charges same as Weekdays,Charges same as Weekdays,1.2897274,103.8562673
150,Euro-Asia Centre,"15 Hoe Chiang Road, S(089316)","\$2.20 for 1st hr, \$1.10 for next subsequent 30min from 8am to 5pm",\$2.00/entry from 5pm to 8am the following day,\$2.00/entry from 8am to 1pm only,\$2.00/entry from 8am to 1pm only,1.2738039,103.8421553
151,Far East Plaza,"14 Scotts Road, S(228213)",\$1.07/30min from 8am to 5pm,\$3.53/entry from 5pm to 8am the following day,Charges same as weekdays,\$3.53/entry from 8am to 8am the following day,1.3071502000000002,103.8337132
152,Far East Shopping Centre,"545 Orchard Road, S(238882)","\$2.40 for 1st hr, \$1.20 for next subsequent 30min from 8am to 6pm","\$3.50/entry from 6pm to 12midnight, \$5.00/entry from 12midnight to 8am the following day",Charges same as weekdays,"\$4.50/entry from 8am to 12midnight, \$5.00/entry from 12midnight to 8am the following day",1.3055172,103.8299217
153,Far East Square,"42 Pekin Street, S(048772)",\$2.14/30min from 6am to 4.59pm,\$3.21/entry from 5pm to 5.59am the following day,\$3.21/entry from 6am to 6am the following day,\$3.21/entry from 6am to 6am the following day,1.2831469,103.8488132
154,Far Eastern Bank Building,"156 Cecil Street, S(069544)",\$2.50/30min from 7am to 6pm,\$3.20/entry from 6.30pm to 7am,"\$2.50/30min from 7am to 1pm, \$3.20/entry from 1pm to 7am",Closed,1.2799539,103.8481934
155,First Commercial Bank,"76 Shenton Way, S(079119)","\$2.00 for 1st hr, \$1.00 for next subsequent 30min from 8am to 5pm","\$2.00 for 1st hr, \$1.00 for next subsequent 30min from 5pm to 8am the following day","Charges same as weekdays, Car Park closes at 2pm",Closed,1.273423,103.8455344
156,Fortune Centre,"190 Middle Road, S(188979)",\$3.22/hr from 7am to 5pm,\$3.21/entry from 5pm to 7am the following day,Charges same as weekdays,Charges same as weekdays,1.300376,103.852234
157,Forum The Shopping Mall,"583 Orchard Road, S(238884)","\$2.40 for 1st hr, \$1.20 for subsequent 30min from 6am to 5pm",\$3.20/entry from 5pm to 6am the following day,"\$2.60 for 1st hr, \$1.40 for subsequent 30min from 6am to 5pm, \$3.20/entry from 5pm to 6am the following day",\$3.20/entry from 6am to 6am the following day,1.3060889,103.82869620000001
158,Four Seasons Hotel,"190 Orchard Boulevard, S(248646)","\$6.00 for 1st hr, \$3.00 for next subsequent 30min from 6am to 6pm",\$6.00/entry from 6pm to 6am the following day,Charges same as weekdays,Charges same as weekdays,1.3052671999999998,103.82866829999999
159,Fu Lu Shou Complex,"149 Rochor Road, S(188425)",\$1.20/30min from 8am to 5pm,\$2.20/entry from 5pm to 11pm,Charges same as weekdays,Charges same as weekdays,1.3014678,103.8544724
160,Fuji Xerox Towers,"80 Anson Road, S(079907)",\$2.20/30min from 7am to 6pm,\$3.50/entry from 6pm to 11pm,\$3.50/entry from 7am to 11pm,\$3.50/entry from 7am to 11pm,1.2732056,103.843637
161,Funan DigitaLife Mall,"109 North Bridge Road, S(179097)",Carpark closed,Carpark closed,Carpark closed,Carpark closed,1.2914065000000001,103.8500426
162,Furama City Centre Singapore,"60 Eu Tong Sen Street, S(059804)",\$1.70/30min from 5.59am to 6pm,\$3.21/entry from 6pm to 5.59am the following day,Charges same as weekdays,\$3.21/entry from 5.59am to 6am the following day,1.286551,103.84461800000001
163,Gateway @ 150 Beach Rd,"150 Beach Road, S(189720)",\$2.80/hr from 7am to 6pm,\$2.10/entry from 6pm to 7am the following day,"\$2.80/hr from 7am to 1pm, \$2.10/entry from 1pm to 7am the following day",\$2.10/entry from 7am to 7am the following day,1.2984391000000002,103.85880350000001
164,West Coast Plaza,"154 West Coast Road, S(127371)","\$1.34/hr, \$1.00 for subsequent 30min from 7am to 5pm","\$1.34/hr, \$1.00 for subsequent 30min from 5pm to 7am the following day","\$1.61/hr, \$1.00 for subsequent 30min from 7am to 7am the following day","\$1.61/hr, \$1.00 for subsequent 30min from 7am to 7am the following day",1.3038431000000001,103.7662917
165,Gleneagles Hospital,"6A Napier Road, S(258500)","\$2.00 for the 1st 30min, \$0.80 for next subsequent 15min from 7am to 5pm","\$2.00 for the 1st 30min, \$0.80 for next subsequent 15min from 5pm to 7am the following day",Charges same as weekdays,Charges same as weekdays,1.3075821,103.81992640000001
166,Goldbell Towers,"47 Scotts Road, S(228233)","\$4.00 for 1st hr, \$2.00 for next subsequent 30min from 8am to 5pm",\$5.00/entry from 5pm to 8am the following day,"\$4.00 fro 1st hr, \$2.00 for next subsequent 30min from 8am to 1pm, \$5.00/entry from 1pm to 8am the following day",\$5.00/entry from 8am to 8am the following day,1.312213,103.83718
167,Landmark Village Hotel,"390 Victoria Street, S(188061)","\$1.90 for 1st hr, \$1.07 for next subsequent 30min from 8am to 5pm",\$2.14/entry from 5pm to 8am the following day,Charges same as weekdays,\$2.14/entry from 8am to 8am the following day,1.3020357,103.857782
168,Golden Mile Complex,"5001 Beach Road, S(199588)","\$2.20 for 1st hr, \$1.10 for next subsequent 30min from 7.01am to 6pm",\$2.90/entry from 6.01pm to 7am the following day,Charges same as weekdays,\$2.90/entry from 7.01am to 7am the following day,1.3027906,103.86537729999999
169,Golden Shoe Complex,"50 Market Street, S(048940)",\$5.20/hr from 7am to 5pm,\$3.30/entry from 5pm to 7am the following day,"\$5.20/hr from 7am to 1pm, \$3.30/entry from 1pm to 7am the following day",\$3.30/entry from 7am to 7am the following day,1.284342,103.85011899999999
170,Goldhill Plaza,"1 Goldhill Plaza, S(308899)","\$1.60 for 1st hr, \$1.00 for next subsequent 30min from 7am to 5.30pm",\$2.00/entry from 5.30pm to 12midnight the following day,"\$1.00/hr from 7am to 5.30pm, \$2.00/entry from 5.30pm to 7am the following day","\$1.00/hr from 7am to 5.30pm, \$2.00/entry from 5.30pm to 7am the following day",1.3181533,103.8428522
171,Goodwood Park Hotel,"22 Scotts Road, S(228221)","\$5.35 for 1st hr, \$2.50 for next subsequent 30min from 8am to 6pm",\$5.35/entry from 6pm to 8am the following day,Charges same as weekdays,\$6.42/entry from 8am to 7.59am the following day,1.3087182,103.83444140000002
172,Bright Vision Hospital,"5 Lorong Napiri, S(547530)",Free Parking,Free Parking,Free Parking,Free Parking,1.3715565,103.8777937
173,Bukit Panjang Plaza,"1 Jelebu Road, S(677743)","\$1.28 for 1st hr, \$0.43 for next subsequent 15min or part thereof from 12midnight to 5.59pm",\$2.57/entry from 6pm to 11.59pm,"\$2.57 for 1st 2hr, \$0.43 for next subsequent 15min or part thereof from 12midnight to 6pm, \$2.57/entry from 6pm to 11.59pm","\$2.57 for 1st 2hr, \$0.43 for next subsequent 15min or part thereof from 12midnight to 6pm, \$2.57/entry from 6pm to 11.59pm",1.3800277,103.7643646
174,Bukit Timah Plaza (Multi-Storey Car Park),"1 Jalan Anak Bukit, S(588996)",\$1.40/hr from 7.30am to 5pm,\$2.40/entry from 5.01pm to 7.30am the following day,Charges same as weekdays,"\$2.40 for the 1st 3hr, \$1,40 for the next subsequent hr from 7.30am to 7.30am the following day",1.3386026000000002,103.7785976
175,Bukit Timah Shopping Centre,"170 Upper Bukit Timah Road, S(588179)",\$1.50/hr from 7am to 7pm,\$2.80/entry from 7pm to 7am the following day,Charges same as weekdays,\$3.00/entry from 7am to 7am the following day,1.3431856000000002,103.7761252
176,Burlington Square,"175 Bencoolen Street, S(189649)",\$0.04/min from 7am to 4.49pm,\$2.20/entry from 5pm to 6.59am the following day,"\$3.20 for 1st 3hrs, \$1.80 for next subsequent 30min from 7am to 4.59pm, \$2.20/entry from 5pm to 6.59am the following day","\$3.20 for 1st 3hrs, \$1.80 for next subsequent 30min from 7am to 4.59pm, \$2.20/entry from 5pm to 6.59am the following day",1.3021863999999999,103.8526703
177,Cairnhill Art Centre,"126 Cairnhill Road, S(229707)",HDB parking rates from 8am to 6pm,"Free parking at night, Sunday and PH",Charges same as weekdays,Free Parking,1.3079889999999998,103.83752700000001
178,Cairnhill Place,"15 Cairnhill Road, S(229650)",Carpark not in use,Carpark not in use,Carpark not in use,Carpark not in use,1.3036940000000001,103.836831
179,Capital Square,"23 Church Street, S(049481)",\$2.40/30min from 8am to 6pm,\$3.20/entry from 6pm to 8am,\$3.20/entry from 8am to 8am the following day,\$3.20/entry from 8am to 8am the following day,1.2839173000000002,103.848842
180,Capital Tower,"168 Robinson Road, S(068912)",\$2.80/30min from 7am to 5.59pm,\$3.70/entry from 6pm to 6.59am the following day,"\$2.80/30min from 7am to 12.59pm, \$3.70/entry from 1pm to 6.59am the following day",\$3.70/entry from 7am to 6.59am the following day,1.2777366000000001,103.8476215
181,Capitol Centre,"141 North Bridge Road, S(179099)",Carpark not in use,Carpark not in use,Carpark not in use,Carpark not in use,1.292875,103.851386
182,CapitaCommercial Trust (CCT),"39 Robinson Road, S(068911)",\$2.05/30min from 8am to 5pm,\$3.10/entry from 5pm to 8am the following day,"Charges same as weekdays, \$3.10/entry after 1pm",\$3.10/entry,1.2796201,103.8494984
183,Carlton Hotel,"76 Bras Basah Road, S(189558)","\$3.00 for 1st hr, \$1.50 for next subsequent 30min from 7am to 6pm",\$6.00/entry from 6pm to 7am the following day on Mon to Sat and eve of PH,Charges same as weekdays,Charges same as weekdays,1.2961790000000002,103.85261750000001
184,Causeway Point,"1 Woodlands Square, S(738099)","\$1.20 for 1st hr, \$0.60 for next subsequent 30min from 7am to 7am the following day","\$1.20 for 1st hr, \$0.60 for next subsequent 30min from 7am to 7am the following day",Charges same as weekdays,Charges same as weekdays,1.436078,103.7860612
185,Central Mall,"1 & 3 Magazine Road, S(059567)","\$2.40 for 1st hr, \$1.20 for next subsequent 30min from 7am to 5pm",\$3.60/entry from 5pm to 7am the following day,Charges same as weekdays,\$3.60/entry from 7am to 7am the following day,1.2924739,103.8565218
186,The Centrepoint,"176 Orchard Road, S(238843)","\$1.50 for 1st hr, \$1.00 for next subsequent 30min from 7am to 5pm","\$1.50 for 1st hr, \$1.00 for next subsequent hr from 5pm to 7am the following day",Charges same as weekdays,"\$1.50 for 1st hr, \$1.00 for next subsequent hr from 7am to 7am the following day",1.3019594,103.8398305
187,Orchard Building,"1 Grange Road, S(239693)","\$2.20 for 1st hr, \$1.20 for next subsequent 30min from 6.30am to 6pm",\$4.00/entry from 6pm to 1am the following day,Charges same as weekdays,"\$3.60 for 1st 3hr, \$1.20 for next subsequent 30min, \$4.00/entry from 6pm to 1am the following day",1.3013914,103.837259
188,Century Square,"2 Tampines Central 5, S(529509)","\$1.07 for 1st hr, \$0.32 for next subsequent 15min from 3.01am to 6pm",\$2.14/entry from 6.01pm to 3am the following day,"\$0.32/15min from 3.01am to 6pm, \$2.14/entry from 6.01pm to 3am the following day","\$0.32/15min from 3.01am to 6pm, \$2.14/entry from 6.01pm to 3am the following day",1.3523388,103.9438775
189,Changi Airport Terminal 1,"1 Airport Boulevard, S(819642)",\$0.04/min from 12midnight to 12midnight the following day,\$0.04/min from 12midnight to 12midnight the following day,Charges same as weekdays,Charges same as weekdays,1.3422816,103.9823566
190,Changi Hospital (CGH),"2 Simei Street 3, S(529889)","\$1.28 for 1st hr, \$0.03/min for next subsequent min from 7am to 5pm","\$1.28 for 1st hr, \$0.03/min for next subsequent min from 5pm to 7am the following day",Charges same as weekdays,Charges same as weekdays,1.3406241,103.9494707
191,Changi Village Hotel,"1 Netheravon Road, S(508502)","\$4.00 for 1st hr, \$3,00 for next subsequent hr from 6am to 5pm",\$6.50/entry from 6pm to 5am the following day,"\$4.00 for 1st hr, \$3.00 for next subsequent hr from 6am to 6am the following day","\$4.00 for 1st hr, \$3.00 for next subsequent hr from 6am to 6am the following day",1.3904623999999999,103.9859909
192,Chijmes (Basement Car Park),"30 Victoria Street, S(187996)","\$0.25/15min from 8am to 10.59am, \$0.55/15min from 11am to 5.59pm",\$2.20/hr from 6.00pm to 7.59am the following day,"\$2.20 for 1st 2hr, \$0.40 for next subsequent 15min from 8am to 5.59pm, 2.20/hr from 6pm to 7.59am the following day","\$2.20 for 1st 2hr, \$0.40 for next subsequent 15min from 8am to 5.59pm, 2.20/hr from 6pm to 7.59am the following day",1.2953653,103.852459
193,Bras Basah Complex,"231 Bain Street, S(180231)","\$1.20/30min from 7am the 10am, \$1.40/30min from 10am to 10.30pm",\$0.60/30m from 10.30pm to 7am the following day,Charges same as weekdays,Charges same as weekdays,1.2971515,103.8536166
194,28 Maxwell Rd,"28 Maxwell Road, S(069120)","\$2.60 for 1st hr, \$0.55 for next subsequent 15min from 7am to 4.59pm",\$3.60/entry from 5pm to 7am the following day,Charges same as weekdays,\$3.60/entry from 7am to 7am the following day,1.2782482,103.845625
195,The Bencoolen,"180 Bencoolen Street, S(189646)",\$1.20/30min from 6am to 5pm,"\$1.20/30min from 5pm to 11pm, \$3.00/entry from 11pm to 6am the following day",Charges same as weekdays,"\$1.20/hr from 6am to 11pm, \$3.00/entry from 11pm to 6am the following day",1.3017646999999999,103.8531752
196,Beach Centre,"15 Beach Road, S(189677)","\$1.50 for 1st 30min, \$1.20 for next subsequent 30min from 8am to 5pm",\$3.00/entry from 5pm to 8am,Charges same as weekdays,\$3.50/entry from 8am to 8am the following day,1.2958683000000002,103.85553490000001
197,Bangkok Bank Building,"180 Cecil Street, S(069546)","\$2.00 for 1st 30min, \$4.00 for next subsequent hr from 7am to 7pm","\$2.00 for 1st 30min, \$4.00 for next subsequent hr from 7am to 7pm",Charges same as weekdays but closed after 3pm,Closed,1.2792525,103.84778
198,Balestier Point,"279 Balestier Road, S(329727)",\$0.70/hr from 8am to 10pm,\$2.00/entry from 10pm to 8am the following day,Charges same as weekdays,\$2.00/entry from 8am to 8am the following day,1.3227520000000001,103.8520236
199,Balestier Plaza,"400 Balestier Road, S(329802)",\$1.20/hr,\$1.20/hr,Charges same as weekdays,Charges same as weekdays,1.3257389,103.8503795
200,Automobile Megamart (AML),"61 Ubi Avenue 2, S(408898)",\$1.20/hr from 8am to 6pm,"\$1.50/entry from 6pm to 12midnight the following day, \$10.00/entry from 12midnight to 8am",Charges same as weekdays,Charges same as weekdays,1.3319052999999998,103.9012577
201,2HR,"2 Havelock Road, S(059763)",\$1.50/30min from 7am to 4.59pm,\$3.00/entry from 5pm to 7am the following day,Charges same as weekdays,\$3.00/entry from 7am to 7am the following day,1.2871382,103.84519240000002
202,Hub Synergy,"70 Anson Road, S(079905)",\$2.60/hr from 7am to 6pm,\$1.00/hr from 6pm to 12midnight,"\$1.00/30min from 7am to 2pm, \$1.00/hr from 2pm to 12midnight",\$1.00/hr from 7am to 12midnight,1.273992,103.84443809999999
203,Ang Mo Kio Community Hospital,"17 Ang Mo Kio Avenue 9, S(569766)",\$0.86/30min from 7am to 10pm,\$3.10/entry from 10pm to 7am the following day,Charges same as weekdays,\$3.10/entry from 7am to 7am the following day,1.3841331,103.8403717
204,Anchorpoint Shopping Centre,"370 Alexandra Road, S(159953)",\$2.00/hr from 8am to 6.59pm,\$3.00/entry from 7pm to 7.59am,Charges same as weekdays,Charges same as weekdays,1.2887273000000001,103.80518
205,Amtech Building,"157 Sin Ming Road, S(575624)","\$1.00 for 1st hr, \$2.00 for next subsequent 30min from 8am to 5pm",\$2.00/entry from 5pm to 8am the following day,Charges same as weekdays,\$2.00/entry from 8am to 8am the following day,1.3565261999999998,103.83793940000001
206,Amara Hotel,"165 Tanjong Pagar Road, S(088539)",\$2.00/30min from 8am to 5pm,\$3.00/entry from 5pm to 7.59am the following day,Charges same as weekdays,\$3.00/entry from 8am to 7.59am the following day,1.2750309,103.84355079999999
207,Allson Hotel,"101 Victoria Street, S(188018)",\$1.50/30min from 7am to 5pm,\$4.00/entry from 5pm to 7am the following day,Charges same as weekdays,\$4.00/entry from 7am to 7am the following day,1.2973981,103.85255759999998
208,Alexandra Hospital,"378 Alexandra Road, S(159964)",\$1.80/hr from 7am to 10pm,\$1.60/hr from 10pm to 7am the following day,Charges same as weekdays,\$1.68/hr from 7am to 7am the following day,1.286235,103.80082940000001
209,Albert Court Hotel,"180 Albert Street, S(189971)","\$2.50 for 1st hr, \$1.00 for next subsequent 30min from 8am to 6pm",\$3.50/entry from 6pm to 8am the following day,Charges same as weekdays,\$3.50/entry from 8am to 8am the following day,1.3041967,103.85082840000001
210,Albert Complex,"60 Albert Street, S(189969)",\$1.20/30min from 7am to 11pm daily,\$1.20/30min from 7am to 11pm daily,Charges same as weekdays,Charges same as weekdays,1.3023696000000002,103.8538787
211,AIA (Changi),"160 Changi Road, S(419728)",Private Car Park,Private Car Park,Private Car Park,Private Car Park,1.3169921,103.9022547
212,Adam Road Medical Centre ,"19 Adam Road, S(289891)",Free Parking,Free Parking,Free Parking,Free Parking,1.3267685,103.8133541
213,888 Plaza,"888 Woodlands Drive 50, S(730888)","\$1.00/hr from 7am to 12pm, Free Parking from 12pm to 2pm, \$1.00/hr from 2pm to 5pm","\$1.00/entry from 5pm to 12midnight, \$2.00/entry from 12midnight to 7am the following day",Charges same as weekdays,Charges same as weekdays,1.4378446000000005,103.7952933
214,79 Anson Road,"79 Anson Road, S(079906)",\$2.00/30min from 7am to 6pm,\$4.00/entry from 6pm to 7am the following day,"\$2.00/30min from 7am to 1pm, \$4.00/entry from 1pm to 11pm",\$4.00/entry from 7am to 7am the following day,1.2742034,103.8456928
215,51 Bencoolen Street,"51 Bencoolen Street, S(189630)",\$1.00/30min from 7am to 6pm,\$2.00/entry from 6.01pm to 6.59am the following day,Charges same as weekdays,\$2.00/entry from 7am to 7am the following day,1.2992962,103.8501163
216,Queensway Shopping Centre,"1 Queensway, S(149053)","\$1.80 for 1st 1hr, \$1.60 for next subsequent 30min from 8am to 5.59pm",\$3.30/entry from 6pm to 7.59am the following day,Charges same as weekdays,Charges same as weekdays,1.2876044,103.8033839
217,Raffles City,"252 North Bridge Road, S(179103)","\$2.20 for 1st hr, \$0.55 for next subsequent 15min from 8am to 5.59pm",\$3.00/entry from 6pm to 7.59am the following day,"\$2.20 for 1st 2hr, \$0.40 for next subsequent 15min from 8am to 7.59am the following day, \$0.60 for next subsequent 15min after the 5th hr","\$2.20 for 1st 2hr, \$0.40 for next subsequent 15min from 8am to 7.59am the following day, \$0.60 for next subsequent 15min after the 5th hr",1.2936428999999998,103.8528375
218,Raffles Hospital,"585 North Bridge Road, S(188770)","\$2.80 for 1st hr, \$1.70 for next subsequent 30min from 8am to 4.59pm",\$2.40/entry from 5.00pm to 7.59am the following day,"\$2.80 for 1st hr, \$1.70 for next subsequent 30min from 8am to 12.59pm, \$2.40 for 1st 2hr, \$0.24 for next subsequent 10min from 1pm to 7.59am the following day","\$2.40 for 1st 2hr, \$0.24 for next subsequent 10min from 8amm to 7.59am the following day",1.3012188999999998,103.8572533
219,Raffles Hotel,"1 Beach Road, S(189673)","\$3.00 for 1st 30min, \$1.50 for next subsequent 30min from 12.01am to 6pm",\$6.00/entry from 6.01pm to 12midnight,Charges same as weekdays,\$6.00/entry from 12.01am to 12midnight the following day,1.2951648,103.8542885
220,Raffles Quay,"1 Raffles Quay, S(048583)",\$1.07/10min from 6am to 6pm,"\$3.21 for 1st 4hr, \$0.27 for next subsequent 10min block or thereof from 6.00pm to 6.00am","\$3.21 for 1st 4hr, \$0.27/hr for next subsequent 10min from 6am to 6am the following day","\$3.21 for 1st 4hr, \$0.27/hr for next subsequent 10min from 6am to 6am the following day",1.281092,103.8520854
221,ABI Plaza,"11 Keppel Road, S(089057)","\$4.28 for 1st hr, \$2.68 for next subsequent 30min from 8am to 6pm","\$4,28/entry from 6pm to 8am the following day","Charges same as weekdays, \$4.28/entry from 1pm to 8am the following day",\$4.28/entry from 8am to 8am the following day,1.2732168,103.84289559999999
222,Regency House,"121 Penang Road, S(238464)","\$2.50 for 1st hr, \$1.25 for next subsequent 30min from 8am to 5pm","\$2.50 for 1st hr, \$1.25 for next subsequent 30min from 5pm to 8am the following day",Charges same as weekdays,Charges same as weekdays,1.2994556000000002,103.8420178
223,Regent Hotel (Basement Parking),"1 Cuscaden Road, S(249715)","\$5.00 for 1st hr, \$2.50 for next subsequent 30min from 7am to 6pm",\$6.00/entry from 6pm to 6.59am the following day,Charges same as weekdays,Charges same as weekdays,1.3046722,103.82483420000001
224,RELC International Hotel,"30 Orange Grove Road, S(258352)","\$4.00 for 1st hr, \$3.00 for next subsequent 1hr from 7am to 5pm",\$4.50/entry from 5pm to 7am the following day,Charges same as weekdays,\$4.50/entry from 7am to 7am the following day,1.3129399,103.8261179
225,Ren Ci Long Term Care,"10 Buangkok View, S(539747)",\$2.40/30min from 7am to 6pm,"\$2.40/entry from 6pm to 9pm, \$0.04/min from 9pm to 7am the following day","\$0.04/min from 7am to 1pm, \$2.40/entry from 1pm to 9pm, \$0.04/min from 9pm to 7am the following day","\$2.10/entry from 7am to 9pm, \$0.04/min from 9pm to 7am the following day",1.3821973,103.88472940000001
226,Republic Plaza,"9 Raffles Place, S(048619)",\$3.00/30min from 7am to 5pm,\$3.50/entry from 5pm to 7am the following day,\$3.50/entry from 7am to 7am the following day,\$3.50/entry from 7am to 7am the following day,1.2832428,103.8508359
227,NTU RTP Car Park (Research Techno Plaza),"50 Nanyang Avenue, S(639798)","\$0.02/min from 8am to 6pm, maximum charge of \$4.80/day","\$1.20/entry from 6pm to 10pm, Free parking from 10pm to 8am the following day",Free Parking,Free Parking,1.3477484,103.6828574
228,"The Ritz Carlton, Millenia Singapore","7 Raffles Avenue, S(039799)","\$3.30 for 1st hr, \$1.10 for next subsequent 30min from 7am to 6pm",\$2.20/entry from 6pm to 7am the following day,"\$2.20 for 1st 2hr, \$1.10 for next subsequent hr from 7am to 7am the following day","\$2.20 for 1st 2hr, \$1.10 for next subsequent hr from 7am to 7am the following day",1.2907523,103.8600717
229,River View Hotel,"382 Havelock Road, S(169629)","\$4.00 for 1st hr, \$1.50 for next subsequent 30min from 7am to 6pm",\$4.00/entry from 6pm to 7am the following day,Charges same as weekdays,Charges same as weekdays,1.2893323,103.83665090000001
230,Robertson Walk,"11 Unity Street, S(237995)","\$1.50 for 1st hr, \$0.50 for next subsequent 30min form 6am to 6pm",\$4.00/entry from 6pm to 6am the following day,Charges same as weekdays,\$4.00/entry from 6am to 6am the following day,1.2919747,103.8414577
231,Robinson Centre,"61 Robinson Road, S(068893)",\$2.20/30min from 8am to 5pm,\$3.00/entry from 5pm to 8am the following day,"Charges same as weekdays, but \$2.50/entry after 1pm","Charges same as weekdays, but \$2.50/entry after 1pm",1.2792546999999999,103.8492432
232,Roxy Square,"50 East Coast Road, S(428769)","\$1.30 for 1st hr, \$0.70 for next subsequent 30min from 7am to 6pm",\$2.50/entry from 6pm to 12midnight,Charges same as weekdays,Charges same as weekdays,1.3039693,103.90426590000001
233,Royal Hotel,"36 Newton Road, S(307964)",\$1.71/hr from 6am to 6pm,\$3.21/entry after 6pm,Charges same as weekdays,Charges same as weekdays,1.3168094,103.8418298
234,Royal Plaza on Scotts,"25 Scotts Road, S(228220)","\$4.00 for 1st hr, \$1.50 for next subsequent 30min from 8am to 6pm",\$5.50/entry from 6pm to 8am the following day,Charges same as weekdays,\$5.50/entry from 8am to 8am the following day,1.3071373,103.8325097
235,Selegie Complex,"257 Selegie Road, S(188350)",*Building Demolished*,*Building Demolished*,*Building Demolished*,*Building Demolished*,1.3040690000000001,103.850206
236,Sembawang Shopping Centre,"604 Sembawang Road, S(758459)","\$1.28 for 1st hr, \$0.43 for next subsequent 15min from 12midnight to 11.59pm","\$1.28 for 1st hr, \$0.43 for next subsequent 15min from 12midnight to 11.59pm","\$1.50 for 1st hr, \$0.43 for next subsequent 15min from 12midnight to 11.59pm","\$1.50 for 1st hr, \$0.43 for next subsequent 15min from 12midnight to 11.59pm",1.4418121000000002,103.82495970000001
237,Sentosa - Beach Station,Beach View Road,\$0.02/min from 7am to 5pm,\$2.40/entry from 5.01pm to 6.59am the following day,Charges same as weekdays,Charges same as weekdays,1.297204,103.856504
238,SGX Centre,"2 Shenton Way, S(068804)",\$2.50/30min from 7am to 5pm,\$3.00/entry from 5pm to 10pm,\$3.00/entry from 7am to 10pm,\$3.00/entry from 7am to 10pm,1.2797533,103.8500756
239,Shangri-La Hotel,"22 Orange Grove Road, S(258350)","\$6.00 for 1st hr, \$2.00 for next subsequent 30min from 7am to 6pm",\$8.00/entry from 6pm to 7am the following day,Charges same as weekdays,Charges same as weekdays,1.311266,103.82678100000001
240,Shaw Centre,"1 Scotts Road, S(228208)","\$2.00 for 1st hr, \$1.50 for next subsequent 30min from 3am to 5.59pm",\$4.00/entry from 6pm to 3am the following day,Charges same as weekdays,Charges same as weekdays,1.3060341999999998,103.8321119
241,Shaw House,"350 Orchard Road, S(238868)","\$2.00 for 1st hr, \$1.50 for next subsequent 30min from 3am to 6pm",\$4.00/entry from 6pm to 3am the following day,Charges same as weekdays,Charges same as weekdays,1.3057331,103.8314536
242,Shaw Plaza,"352 Balestier Road, S(329780)","\$1.04 for 1st hr, \$0.53 for next subsequent 30min from 8am to 4.59pm",\$1.55/entry from 5pm to 7.59am the following day,Charges same as weekdays,Charges same as weekdays,1.3246621,103.851106
243,Shaw Towers,"100 Beach Road, S(189702)","\$1.07 for 1st hr, \$1.07 for next subsequent 30min from 12midnight to 5pm",\$2.20/entry from 5pm to 12midnight the following day,\$2.14/entry from 12midnight to 12midnight the following day,\$2.14/entry from 12midnight to 12midnight the following day,1.2966205,103.85689090000001
244,Shenton House,"3 Shenton Way, S(068805)",\$3.00/30min from 7am to 5pm,\$3.00/entry from 5pm to 7am the following day,"Charges same as weekdays, but \$3.00/entry after 2pm",\$3.00/entry from 8am to 8am the following day,1.2786461,103.85013149999999
245,Sheraton Towers Singapore,"39 Scotts Road, S(228230)","\$4.00 for 1st hr, \$2.00 for next subsequent 30min from 7am to 6pm",\$6.00/entry from 6pm to 7am the following day,Charges same as weekdays,\$6.00/entry from 7am to 7am the following day,1.3119218000000001,103.8364038
246,Singapore Institute of Architects (SIA),"79 Neil Road, S(088904)",HDB / URA parking rates,HDB / URA parking rates,HDB / URA parking rates,HDB / URA parking rates,1.279189,103.842117
247,Siglap Centre,"55 Siglap Road, S(455871)",\$0.82/30min from 8am to 5pm,\$0.82/30min from 5pm to 8am the following day,Charges same as weekdays,Charges same as weekdays,1.312614,103.92317209999999
248,Sim Lim Square,"1 Rochor Canal Road, S(188504)",\$0.06/min form 3am to 6pm,\$2.14/entry from 6.00pm to 3am the following day,Charges same as weekdays,Charges same as weekdays,1.3030433000000001,103.85292079999999
249,Sim Lim Tower,"10 Jalan Besar, S(208787)",\$1.60/30min from 8.30am to 6pm,\$1.60/30min from 6pm to 8.30am the following day,Charges same as weekdays,Charges same as weekdays,1.3037566999999999,103.8545686
250,Singapore Conference Hall,"7 Shenton Way, S(068810)",Carpark closed,Carpark closed,Carpark closed,Carpark closed,1.2762667,103.8490709
251,Singapore Expo,"1 Expo Drive, S(486150)","\$3.20 for 1st 2hr, \$1.50 for next subsequent 30min","\$3.20 for 1st 2hr, \$1.50 for next subsequent 30min",Charges same as weekdays,Charges same as weekdays,1.3336857,103.9590053
252,Singapore General Hospital (SGH),"1 Hospital Drive, S(169608)","\$2.16/hr for Carpark C from 7am to 9.59pm, \$1.20/hr for Carpark H from 7am to 9.59pm",\$2.14/entry from 10pm to 6.59am the following day for Carpark C and H.,Charges same as weekdays,"\$2.14/hr from 7.00am to 9:59pm, \$2.14/entry from 10pm to 6.59am the following day for Carpark C and H, \$2.14/entry from 7am to 6:59am the following day for Carpark H",1.2794968,103.83462929999999
253,Singapore Management University (SMU),"50 Stamford Road, S(178899)","\$2.40/hr from 12midnight to 10.59am, \$3.00/hr from 11am to 1.59pm, \$2.40/hr from 2pm to 5.59pm",\$3.00/entry from 6pm to 11.59pm,"\$2.40/hr from 12midnight to 5.59pm, \$3.00/entry from 6pm to 11.59pm","\$2.40/hr from 12midnight to 5.59pm, \$3.00/entry from 6pm to 11.59pm",1.294866,103.850259
254,Singapore Post Centre,"10 Eunos Road 8, S(408600)","\$1.60 for 1st hr, \$1.00 for next subsequent 30min from 7am to 5pm","\$3.00/entry from 5pm to 12midnight, \$1.60 for 1st hr, \$1.00 for next subsequent 30min from 12midnight to 7am the following day","\$1.60 for 1st hr, \$1.00 for next subsequent 30min from 7am to 1pm, \$3.00/entry from 1pm to 12midnight the following day, \$1.60 for 1st hr, \$1.00 for next subsequent 30min from 12mi","\$3.00/entry from 7am to 12midnight, \$1.60 for 1st hr, \$1.00 for next subsequent 30min from 12midnight to 7am the following day",1.3188149999999998,103.89465940000001
255,TripleOne Somerset,"111 Somerset Road, S(238164)",\$1.50/30min from 7am to 5.59pm,"\$1.80/hr from 6pm to 11.59pm, \$0.50 for next subsequent 15min from 12midnight to 6.59am the following day","\$2.00 for 1st hr, \$0.50 for next subsequent 15min from 7am to 5.59pm, \$1.80/hr from 6pm to 11.59pm, \$0.50 for next subsequent 15min from 12midnight to 6.59am the following day","\$1.80/hr from 7am to 11.59pm, \$0.50 for next subsequent 15min from 12am to 6.59am the following day",1.3005142,103.8376372
256,Singapore Shopping Centre,"190 Clemenceau Avenue, S(239924)","\$2.50 for 1st hr, \$1.25 for next subsequent 30min from 8.01am to 8pm",\$3.00/entry from 8.01pm to 8am the following day,Charges same as weekdays,Charges same as weekdays,1.2981643,103.8440439
257,Rochester Park,"2 Rochester Park, S(139213)",\$1.00/hr from 6am to 11pm,\$2.00/entry from 11pm to 6am,Charges same as weekdays,Charges same as weekdays,1.304794,103.787563
258,South Point,"200 Cantonment Road, S(089763)","\$3.00 for 1st hr, \$2.00 for next subsequent 30min from 8am to 10pm",\$3.00/entry from 10pm to 8am the follwoing day,Charges same as weekdays,\$5.00/entry from 8am to 8am the following day,1.2734955,103.8412354
259,SPRING Singapore,"2 Bukit Merah Central, S(159835)",\$0.50/30min from 7am to 6pm,\$2.50/entry from 6pm to 7am the following day,"\$0.50/30min from 7am to 1pm, \$2.50/entry from 1pm to 7am the following day",\$2.50/entry from 7am to 7am the following day,1.2844178,103.8137968
260,Springleaf Tower,"3 Anson Road, S(079909)",Season Parking Only,Season Parking Only,Season Parking Only,Season Parking Only,1.2753676,103.84639859999999
261,St Andrew's Community Hospital,"8 Simei Street 3, S(529895)","\$1.20/hr, \$0.70 for next subsequent 30min from 8am to 5pm","\$1.20/hr, \$0.70 for next subsequent 30min from 5pm to 8am the following day",Charges same as weekdays,Charges same as weekdays,1.341687,103.949116
262,St Luke Hospital,"2 Bukit Batok Street 11, S(659674)",\$1.50/hr from 7am to 5pm,\$1.50/hr from 5pm to 7am the following day,Charges same as weekdays,Charges same as weekdays,1.349364,103.7423589
263,Stadium Waterfront,"2 Stadium Walk, S(397691)",HDB / URA parking rates,HDB / URA parking rates,HDB / URA parking rates,HDB / URA parking rates,1.300506,103.874585
264,Starhub Centre,"51 Cuppage Road,S(29469)","\$2.00 for 1st hr, \$1.50 for next subsequent 30min from 7.00am to 6pm","\$2.00 for 1st hr, \$1.50 for next subsequent 30min from 6.00pm to 7am the following day",Charges same as weekdays,Charges same as weekdays,1.3029253,103.8401798
265,Sultan Plaza,"100 Jalan Sultan, S(199001)",\$1.80/hr from 8am to 6pm,\$3.00/entry from 6pm to 8am the following day,Charges same as weekdays,\$3.00/entry from 8am to 8am the following day,1.3032487,103.8619347
266,Sun Plaza,"30 Sembawang Drive, S(757713)","\$1.39 for 1st hr, \$0.75 for subsequent 30min from 7am to 4.59pm","\$2.68/entry from 5pm to 10.59pm, \$3.96/entry from 11pm to 6.59am the following day",Charges same as Weekdays,Charges same as Weekdays,1.4482678,103.8196887
267,Sunshine Plaza,"91 Bencoolen Street, S(189652)","\$2.00 for 1st hr, \$0.04 for next subsequent min from 7am to 10pm from Mon to Thurs",\$5.00/entry from 10pm to 7am the following day from Mon to Thurs,"\$2.20 for 1st hr, \$0.04 for next subsequent min from 7am to 10pm, \$5.00/entry from 10pm to 6.59am the following day from Fri to Sun","\$2.20 for 1st hr, \$0.04 for next subsequent min from 7am to 9.59pm, \$5.00/entry from 10pm to 7am the following day from Fri to Sun",1.3002817,103.85084029999999
268,Suntec City Mall,"3 Temasek Boulevard, S(038983)","\$1.10/hr from 4am to 7am, \$2.20 for 1st hr, \$1.10 for subsequent 30min from 7am to 5pm",\$2.20/entry from 5pm to 4am the following day,"\$1.10/hr from 4am to 5pm, \$2.80/entry from 5pm to 4am the following day","\$1.10/hr from 4am to 5pm, \$2.80/entry from 5pm to 4am the following day",1.2944026000000002,103.85815240000001
269,Swissotel Merchant Court Hotel,"20 Merchant Road, S(058281)","\$4.50 for 1st hr, \$1.50 for next subsequent 30min from 8am to 5pm","\$4.50 for 1st hr, \$1.50 for next subsequent 30min from 5pm to 8am the following day",Charges same as weekdays,Charges same as weekdays,1.2885153999999999,103.84570649999999
270,Swissotel The Stamford Hotel,"2 Stamford Road, S(178882)","\$2.20 for 1st 1hr, \$0.55 for next subsequent 15min from 8am to 6pm",\$3.00/entry from 6pm to 8am the following day,"\$2.20 for 1st 2hr, \$0.40 for next subsequent 15min from 8am to 8am the following day","\$2.20 for 1st 2hr, \$0.40 for next subsequent 15min from 8am to 8am the following day",1.2933597,103.8531036
271,"Takashimaya, Ngee Ann City","391 Orchard Road, S(238872)",\$1.28/30min (from 12.01am-12pm & 2.01pm-5pm) \$1.82/30min (from 12.01pm-2pm),"\$1.82/30min (from 5.01pm-7pm), \$4.28/entry from (7.01pm-12midnight)","\$2.57 for 1st hr, \$1.61 for next subsequent 30min (from 12.01am-12pm & 2.01pm-5pm), \$3.64 for 1st hr, \$2.14 for next subsequent 30min (from 12.01pm-2pm & 5.01pm-7pm), \$4.28/entry f","\$2.57 for 1st hr, \$1.61 for next subsequent 30min (from 12.01am-12pm & 2.01pm-5pm), \$3.64 for 1st hr, \$2.14 for next subsequent 30min (from 12.01pm-2pm & 5.01pm-7pm),",1.303212,103.83425799999999
272,Tampines Junction,"300 Tampines Avenue 5, S(529653)","\$1.50 for 1st hr, \$1.50 for next subsequent hr from 8am to 6pm",\$2.50/entry from 6pm to 8am the following day,Charges same as weekdays,\$3.00/entry from 8am to 8am the following day,1.3523107,103.9419402
273,Tampines Mall,"4 Tampines Central 5, S(529510)","\$1.28 for 1st hr, \$0.43 for next subsequent 15min from 12midnight to 5.59pm from Mon to Fri and Eve of PH","\$2.57/entry from 6pm to 11.59pm from Mon to Thurs, \$2.57/entry from 6 pm to 2.59am on Fri and Eve of PH","\$2.57 for 1st 2hr, \$0.43 for next subsequent 15min from 3am to 5.59pm. \$2.57/entry from 6pm to 2.59am the following day","\$2.14 for 1st 2hr, \$0.32 for next subsequent 15min from 3am to 5.59pm. \$2.57/entry from 6pm to 11.59am the following day",1.3526608999999998,103.945245
274,Tampines Mart,"11 Tampines Street 32, S(529287)",\$0.70/30min from 8am to 5pm,\$0.70/30min from 5pm to 8am the following day,Charges same as weekdays,Charges same as weekdays,1.354349,103.9602589
275,Tampines Plaza,"5 Tampines Central 1, S(529541)",\$1.00/30min from 7am to 5pm,\$2.50/entry from 5pm to 7am the following day,Charges same as weekdays,\$2.50/entry from 7am to 7am the following day,1.3531936000000002,103.94268790000001
276,Safra Tampines,"1 Tampines Street 92, S(528882)","(For Member): \$0.81 for 1st hr, \$0.21 for next subsequent 15min, (For Public): \$1.75 for 1st hr, \$0.44 for next subsequent 15min from 6am to 6pm","(For Member): \$1.63/entry, (For Public): \$3.40/entry from 6pm to 6am the following day",Charges same as weekdays,"(For Member): \$1.63/entry, (For Public): \$3.40/entry from 6am to 6am the following day",1.344724,103.941739
277,Tan Tock Seng Hospital (TTSH),"11 Jalan Tan Tock Seng, S(308433)",\$0.04/min from 7am to 6pm,\$2.40/entry from 6pm to 7am the following day,Charges same as weekdays,\$2.40/entry from 7am to 7am the following day,1.3211194,103.8484458
278,Tanah Merah Ferry Terminal,"50 Tanah Merah Ferry Road, S(498833)",\$1.50/hr up to a maximum charge of \$28/day,\$1.50/hr up to a maximum charge of \$28/day,Charges same as weekdays,Charges same as weekdays,1.3140038,103.98860079999999
279,Tanglin Mall,"163 Tanglin Road, S(247933)","\$2.40 for 1st hr, \$1.20 for subsequent 30min from 6.01am to 5pm",\$3.50/entry from 5.01pm to 6am the following day,"\$2.40 for 1st hr, \$1.20 for subsequent 30min from 6.01am to 1pm, \$3.50/entry from 1.01pm to 6am the following day",\$3.50/entry from 6.01am to 6am the following day,1.3047763,103.8234034
280,Tanglin Shopping Centre,"19 Tanglin Road, S(247909)","\$3.50 for 1st hr, \$1.75 for next subsequent 30min from 8am to 5.59pm",\$3.60/entry from 6pm to 7.59am the following day,Charges same as Weekdays,\$3.60/entry from 8am to 7.59am the following day,1.3063279,103.82684959999999
281,Tang Plaza,"320 Orchard Road, S(238865)","\$3.00 for 1st hr, \$0.05/min up to a maximum charge of \$18.00 from 6am to 6pm",\$6.00/entry from 6pm to 6am the following day,Charges same as weekdays,Charges same as weekdays,1.3049283,103.8331385
282,Tanjong Katong Complex,"845 Geylang Road, S(400845)",HDB / URA parking rates,HDB / URA parking rates,HDB / URA parking rates,HDB / URA parking rates,1.3164241,103.8943071
283,Tanjong Pagar Complex,"7 Keppel Road, S(089053)","\$1.29 for 1st 30min, \$0.43 for every 10min thereafter from 7am to7pm",\$2.14/entry from 7pm to 7am the following day,"\$1.29 for 1st 30min, \$0.43 for every 10min thereafter from 7am to 1pm, \$2.14/entry from 1pm to 7am the following day",\$2.14/entry from 7am to 7am the following day,1.271418,103.842329
284,The Verge,"2 Serangoon Road, S(218227)",\$1.60/hr from 7am to 5pm,"\$2.50/entry from 5pm to 12midnight, \$1.30/hr from 12midnight to 7am the following day",Charges same as weekdays,"\$2.50/entry from 7am to 12midnight, \$2.00/hr from 12midnight to 7am the following day",1.3052069,103.8515847
285,Telepark,"5 Tampines Central 6, S(529482)",\$0.65/30min from 7am to 10pm,\$0.65/30min from 10.01pm to 6.59am the following day,Charges same as weekdays,Charges same as weekdays,1.3533986999999998,103.9420366
286,8 Shenton Way,"8 Shenton Way, S(068811)",\$2.30/30min from 7am to 6pm,\$2.80/entry from 6pm to 6.59am the following day,"\$2.30/30min from 7am to 1pm, \$2.80/entry from 1pm to 6.59am the following day",\$2.80/entry from 7am to 7am the following day,1.2761294,103.84744029999999
287,Textile Centre,"200 Jalan Sultan, S(199018)",\$2.20/hr from 8am to 5.59pm,\$3.00/entry from 6pm to 7.59am the following day,Charges same as weekdays,\$3.00/entry from 8am to 7.59am the following day,1.3038706,103.8614422
288,The Adelphi,"1 Coleman Street, S(179803)","\$2.40 for 1st hr, \$1.20 for next subsequent 30min from 6am to 5pm",\$3.21/entry from 5pm to 1am the following day,Charges same as weekdays,\$3.21/entry from 6am to 1am the following day,1.2911761999999998,103.8512061
289,The Concourse,"298 Beach Road, S(199554)","\$3.21 for 1st hr, \$1.605 for next subsequent 30min from 7am to 5pm",\$4.28/entry from 5pm to 7am the following day,"\$3.20 for 1st hr, \$1.50 for next subsequent 30min from 7am to 12pm, \$4.28/entry from 12pm to 7am the following day",\$4/entry after 5pm.,1.3005498,103.86196770000001
290,The Corporate Office,"138 Robinson Road, S(068906)",\$4.00/hr from 7.01am to 5pm,\$2.50/entry from 5.01pm to 7am the following day,Charges same as weekdays,Closed,1.2784458,103.848261
291,Claymore Plaza,"6 Claymore Hill, S(229571)",\$1.50/30min from 9am to 7pm,Car Park closed after 7pm,Charges same as weekdays,Closed,1.3068223,103.83156329999998
292,Gallery Hotel,"1 Nanson Road, S(238909)","\$3.00 for 1st hr, \$1.00 for next subsequent 30min from 12pm to 2pm, \$2.00 for 1st hr, \$0.50 for next subsequent 30min from 2.01pm to 6pm from Mon to Thurs","\$3.00 for 1st hr, \$1.00 for next subsequent 30min from 6.00pm to 11.59pm, \$2.00 for 1st hr, \$0.50 for next subsequent 30min from 12midnight to 11.59am the following day from Mon to","\$3.00 for 1st hr, \$1.50 for next subsequent 30min from 6.00am to 11.59pm , \$3.00 for 1st hr, \$1.50 for next subsequent 30min from 12am to 1.59am from Fri to Sun/PH","\$2.00 for 1st hr, \$0.50 for next subsequent 30min from 2.01am to 6.00am from Fri to Sun/PH.",1.2901034,103.8385376
293,The Heeren,"260 Orchard Road, S(238855)",\$1.50/30min from 8am to 11pm,\$1.50/30min from 8am to 11pm,"\$5.00 for 1st 3hr, \$1.50 for next subsequent 30min from 8am to 11pm","\$5.00 for 1st 3hr, \$1.50 for next subsequent 30min from 8am to 11pm",1.302618,103.8373783
294,The Plaza,"7500 Beach Road, S(199590)","\$2.00 for 1st hr, \$1.00 for next subsequent 30min from 8am to 5pm",\$2.50/entry from 5pm to 8am the following day,"\$2.00 for 1st hr, \$1.00 for next subsequent 30min from 8am to 1pm, \$2.00 for 1st 4hr, \$0.50 for next subsequent 30min from 1pm to 8am the following day","\$2.00 for 1st 4hr, \$0.50 for next subsequent 30min from 8am to 8am the following day",1.2998041999999999,103.8606655
295,The Riverwalk,"20 Upper Circular Road, S(055416)","\$2.00 for 1st hr, \$1.00 for next subsequent 30min from 7.01am to 5pm","\$3.00/entry from 5.01pm to 12am the following day, \$5.00/entry from 12.01am to 7am","\$2.00 for 1st hr, \$1.00 for next subsequent 30min from 7.01am to 3pm, \$3.00/entry from 3.01pm to 12am the following day, \$5.00/entry from 12.01am to 7am","\$3.00/entry from 7.01am to 12am the following day, \$5.00/entry from 12.01am to 7am",1.2890235,103.84845379999999
296,Thomson Medical Centre,"339 Thomson Road, S(307677)","\$3.90 for 1st hr, \$1.90 for next subsequent 30min from 8am to 8.59pm",\$4.00/entry from 9pm to 8am the following day,"\$3.50 for 1st hr, \$1.70 for next subsequent 30min from 8am to 3pm","\$3.50 for 1st hr, \$1.70 for next subsequent 30min from 8am to 3pm",1.3254092,103.8415093
297,Thomson Plaza,"301 Upper Thomson Road, S(574408)","\$1.00 for 1st hr, \$0.60 for next subsequent 30min from 7am to 12midnight","\$1.00 for 1st hr, \$0.60 for next subsequent 30min from 7am to 12midnight","\$1.20 for 1st hr, \$0.70 for next subsequent 30min from 7am to 12midnight","\$1.20 for 1st hr, \$0.70 for next subsequent 30min from 7am to 12midnight",1.3546824,103.83098659999999
298,Tiong Bahru Plaza,"302 Tiong Bahru Road, S(168732)","\$1.50 for 1st hr, \$0.80 for next subsequent 30min from 7am to 7am the following day","\$1.50 for 1st hr, \$0.80 for next subsequent 30min from 7am to 7am the following day",Charges same as weekdays,"\$1.50/hr from 7.00am to 6pm, \$3.60/entry from 6pm to 7am the following day",1.2864777,103.8271852
299,Tong Eng Building,"101 Cecil Street, S(069533)",\$2.50/30min from 7am to 5pm,\$2.50/entry,"\$2.50/30min from 7am to 4pm, Car Park closes at 4pm",Closed,1.281138,103.8495059
300,Hotel Jen at Tanglin,"1A Cuscaden Road, S(249716)","\$2.40 for 1st hr, \$1.20 for next subsequent 30min from 7am to 5pm",\$3.50/entry from 5pm to 7am the following day,"Charges same as weekdays, but \$3.50/entry after 1pm",\$3.50/entry from 7am to 7am the following day,1.3043850000000001,103.8238263
301,Tristar Complex (Inn S'pore),"970 Geylang Road, S(423492)",\$0.40/30min from 7am to 5pm,\$2/entry from 5pm to 7am the following day,Charges same as weekdays,Charges same as weekdays,1.3160466999999998,103.89726479999999
302,20 Collyer Quay,"20 Collyer Quay, S(049319)",\$2.50/30min from 6am to 5pm,\$3.20/entry from 5pm to 11pm,Charges same as weekdays,Closed,1.284677,103.8527043
303,The Grandstand,"720 Dunearn Road, S(789631)",Free Parking,Free Parking,Free Parking,Free Parking,1.3322253000000002,103.79468929999999
304,UIC Building,"5 Shenton Way, S(068808)",Carpark not in use,Carpark not in use,Carpark not in use,Carpark not in use,1.2780361999999998,103.8497325
305,United House,"20 Kramat Lane, S(228773)",Private Car Park,Private Car Park,Private Car Park,Private Car Park,1.3010722,103.8424588
306,United Square Shopping Mall,"101 Thomson Road, S(307591)","\$2.20 for 1st hr, \$0.30 for next subsequent 15min from 7am to 6pm",\$2.00/entry from 6pm to 7am the following day,"\$2.20 for 1st 2hr, \$0.30 for next subsequent 15min from 7am to 6pm, \$2.00/entry from 6pm to 7am the following day","\$2.50 for 1st 3hr, \$0.30 for next subsequent 15min from 7am to 6pm, \$2.00/entry from 6pm to 7am the following day, \$2.50/entry from 7am to 7am the following day on Public Holidays",1.3174445,103.8435719
307,UOB Plaza,"80 Raffles Place, S(048624)",\$3.00/30min from 7am to 6pm,"\$4.00/entry from 6pm to 12midnight, \$4.00/entry from 12midnight to 7am the following day","\$4.00/entry from 7am to 12midnight, \$4.00/entry from 12midnight to 7am the following day","\$4.00/entry from 7am to 12midnight, \$4.00/entry from 12midnight to 7am the following day",1.2854208999999999,103.8505945
308,UOL Building,"96 Somerset Road, S(238163)",*,*,*,*,1.3009657,103.83784320000001
309,The URA Centre (Basement Car Park),"45 Maxwell Road, S(069118)",\$1.40/30min from 7am to 10pm,\$1.40/30min from 7am to 10pm,Charges same as weekdays,Closed,1.2799508,103.8452291
310,Valley Point,"491 River Valley Road, S(248371)","\$1.50 for 1st hr, \$0.80 for next subsequent 30min from 8am to 5pm","\$1.50 for 1st hr, \$0.80 for next subsequent 30min from 5pm to 8am the following day",Charges same as weekdays,Charges same as weekdays,1.2931273,103.8274535
311,Wellington Building,"20 Bideford Road, S(229921)",*,*,*,*,1.3032243,103.83658249999999
312,West Mall,"1 Bukit Batok Central Link, S(658713)","\$1.10 for 1st 2hr, \$0.60 for next subsequent 30min from 8am to 5pm",\$2.50/entry from 5pm to 6am the following day,"\$1.10 for 1st hr, \$0.60 for next subsequent 30min from 8am to 4.59pm, \$2.50/entry from 5pm to 6am the following day",\$2.50/entry from 8am to 8am the following day,1.3500715,103.7493232
313,West Point Family Hospital,"235 Corporation Drive, S(619771)",Free Parking,Free Parking,Free Parking,Free Parking,1.3310908000000001,103.722924
314,Wheelock Place,"501 Orchard Road, S(238880)","\$3.00 for 1st hr, \$1.50 for next subsequent 30min from 8am to 5.59pm",\$4.50/entry from 6pm to 7.59am the following day,Charges same as weekdays,Charges same as weekdays,1.3047388999999998,103.83067259999999
315,White Sands,"1 Pasir Ris Central Street 3, S(518457)","\$1.20/hr for 1st 2hr, \$1.20 for subsequent 30min from 7am to 7pm",\$2.00/entry from 7pm to 7am the following day,Charges same as weekdays,Charges same as weekdays,1.3724629,103.9497193
316,Wisma Atria,"435 Orchard Road, S(238877)","\$2.50 for 1st hr, \$1.20 for next subsequent 30min from 7.01am to 5pm",\$3.50/entry from 5.01pm to 7am the following day,"\$2.40 for 1st hr, \$1.50 for next subsequent 30min from 7.01am to 5pm, \$3.50/entry from 5.01pm to 7am the following day","\$2.40 for 1st hr, \$1.50 for next subsequent 30min from 7.01am to 5pm, \$3.50/entry from 5.01pm to 7am the following day",1.3037148,103.8332476
317,Woodlands Civic Centre,"900 South Woodlands Drive, S(730900)",\$0.50/30min from 7am to 10.30pm,"\$0.50/30min, \$2.00/entry from 10.30pm to 7am the following day",Charges same as weekdays,Charges same as weekdays,1.4350059,103.78692029999999
318,Yishun 10,"51 Yishun Central 1, S(768794)","\$1.28 for 1st hr, \$0.40 for next subsequent 15min from 7am to 5.59pm",\$2.57/entry from 6pm to 6.59am the following day,Charges same as weekdays,Charges same as weekdays,1.4299238,103.8364296
319,York Hotel,"21 Mount Elizabeth, S(228516)","\$3.00 for 1st hr, \$1.50 for next subsequent 30min from 8.01am to 6pm",\$4.00/entry from 6.01pm to 8am the following day,Charges same as weekdays,\$4.00/entry from 8am to 7.59am the following day,1.3071446000000002,103.8353228
320,Young Women Christian Association (YWCA) Fort Canning Lodge,"6 Fort Canning Road, S(179494)","\$1.60 for 1st hr, \$0.90 for next subsequent 30min from 8am to 5pm",\$2.50/entry from 5pm to 8am the following day,"Charges same as weekdays but \$2.50/entry from 12.01pm to 5pm, \$2.50/entry from 5pm to 8am the following day",\$3.30/entry from 8.01am to 8am the following day,1.2974715,103.845116
321,Savoy Theatre,"90 Boon Lay Place, S(238834)","\$1.20/hr from 8am to 5pm for cars, \$6.80/entry from 8am to 5pm for commercial vehicles","\$3.00/entry from 5.01pm to 7.59am the following day for cars, \$13.00/entry from 5.01pm to 7.59am the following day for commercial vehicles",Charges same as weekdays,"\$3.00/entry from 8am to 7.59am the following day for cars, \$13.00/entry from 8am to 7.59am the following day for commercial vehicles",1.3477348999999998,103.711589
322,Henderson Industrial Park Blk 203,"203 Henderson Road, S(159546)",\$1.40/hr from 8am to 4.59pm,\$1.70/entry from 5pm to 7.59am the following day,Charges same as weekdays,Closed,1.28147,103.821202
323,NTUC Income Henderson Industrial Park,"201 Henderson Road, S(159545)",\$1.30/hr from 8am to 5pm,\$1.60/entry from 5pm to 8am the following day,Charges same as weekdays,Closed,1.2824693,103.8203805
324,Jurong Theatre,"101 Yung Sheng Road, S(618497)",\$1.60/hr from 8am to 8.59pm,\$3.00/entry from 9pm to 7.59am the following day,Charges same as weekdays,\$3.00/entry from 8am to 7.59am the following day,1.3344847,103.7222233
325,Serene Centre,"10 Jalan Serene, S(258748)","\$1.80 for 1st hr, \$1.80 for next subsequent 30min from 8am to 9.59pm",\$1.80/entry from 10pm to 7.59am the following day,Charges same as weekdays,Charges same as weekdays,1.3225296999999998,103.81371340000001
326,Hong Leong Garden Shopping Centre,"228 West Coast Way, Hong Leong Garden Shopping Centre, S(127111)",\$1.21/hr from 8am to 5pm,\$1.72/entry from 5pm to 8am the following day,Charges same as weekdays,\$1.72/entry,1.3156987,103.7573506
327,Coronation Shopping Plaza,"587 Bukit Timah Road, S(269707)",\$2.30/hr from 7am to 7am the following day,\$2.30/hr from 7am to 7am the following day,Charges same as weekdays,Charges same as weekdays,1.323839,103.81003100000001
328,Techplace 1,"4008 Ang Mo Kio Avenue 10, S(569625)","\$0.92 for 1st hr, \$1.12 for next subsequent hr from 8am to 5pm",\$1.74/entry from 5pm to 8am the following day,Charges same as weekdays,Closed,1.3599893,103.85643540000001
329,Balestier Warehouse,"12A Jalan Ampas, S(329516)","\$1.50 for 1st hr, \$1.50 for next subsequent 30min from 8am to 5pm","\$1.50 for 1st hr, \$1.50 for next subsequent 30min from 5pm to 8am the following day",Charges same as weekdays,Charges same as weekdays,1.3264993,103.8519853
330,Fajar Shopping Centre,"445 Fajar Road, S(670445)",\$0.60/30min from 7am to 6pm,"\$0.60/30min up to a maximum charge of \$1.50 from 6pm to 10.30pm, \$0.60/30min up to a maximum charge of \$5.00 from 10.30pm to 7am the following day","\$0.60/30min up to a maximum charge of \$1.50 from 7am to 10.30pm, \$0.60/30min up to a maximum charge of \$5.00 from 10.30pm to 7am the following day","\$0.60/30min up to a maximum charge of \$1.50 from 7am to 10.30pm, \$0.60/30min up to a maximum charge of \$5.00 from 10.30pm to 7am the following day",1.383802,103.770558
331,The Capricorn,"1 Science Park Road, S(117528)","\$1.60 for 1st hr, \$1.07 for next subsequent 30min from 7.30am to 7.30pm",Free parking from 7.30pm to 7.30am the following day,Free parking,Free parking,1.28961,103.7789145
332,Biopolis,"20 Biopolis Way, S(138668)",\$1.00/hr from 7am to 7pm,\$1.00/entry from 7.00pm to 7.00am the following day,Same charges as weekday,Same charges as weekday,1.303943,103.791753
333,JTC Blk 8 / 12 Lorong Bakar Batu,"8 Lorong Bakar Batu, S(348743)",\$0.50/30min from 7am to 11pm,\$0.50/30min from 7am to 11pm,Charges same as weekdays,Closed,1.3274914,103.8722584
334,JTC Tuas Amenity Centre,"71 Pioneer Road, S(639591)",\$0.50/30min from 7am to 10.30pm,\$0.50/30min from 7am to 10.30pm,Charges same as weekdays,Closed,1.316869,103.651887
335,HDB Blk 8A (Empress Rd),"Blk 8A, Empress Road, S(261008)",HDB / URA parking rates from 7am to 10.29pm,"HDB / URA parking rates, up to a maximum charge of \$2.00 from 10.30pm to 12.59am the following day, \$2.00/entry from 1am to 6.59am",Charges same as weekdays,Charges same as weekdays,1.316827,103.806351
336,HDB Blk 303 (Choa Chu Kang Ave 4),"Blk 303, Choa Chu Kang Ave 4, S(680303)",HDB / URA parking rates from 7am to 10.29pm,"HDB / URA parking rates, up to a maximum charge of \$2.00 from 10.30pm to 12.59am the following day, \$2.00/entry from 1am to 6.59am",Charges same as weekdays,Charges same as weekdays,1.3845577,103.74377309999998
337,HDB Blk 4A / 6A (Woodlands Centre Road),"Blk 4A, Woodlands Centre Road, S(731004)",HDB / URA parking rates from 7am to 10.29pm,"HDB / URA parking rates, up to a maximum charge of \$2.00 from 10.30pm to 12.59am, \$2.00/entry from 1am to 6.59am",Charges same as weekdays,Charges same as weekdays,1.4414051,103.76993359999999
338,HDB Blk 131 / 134 / 132 (Jurong East St 13),"Blk 131, Jurong East Street 13, S(600131)",HDB / URA parking rates from 7am to 10.29pm,"HDB / URA parking rates, up to a maximum charge of \$5.00 from 10.30pm to 6.59am the following day",Charges same as weekdays,Charges same as weekdays,1.3346993,103.7400245
339,Balestier Towers,"207 Balestier Road, S(329683)",\$1.50/hr from 8am to 4.59pm,\$2.75/entry from 5pm to 7.59am the following day,Charges same as weekdays,Carpark closed on Sundays,1.3208675,103.8527503
340,Bedok Shopping Complex,"348 Bedok Road, S(469535)",\$1.20/hr from 7am to 2pm,\$1.50/hr from 2pm to 7am the following day,Charges same as weekdays,Charges same as weekdays,1.3314727,103.94825909999999
341,Singapore-Johore Factory,"51 Kampong Bugis, S(338986)",\$1.30/hr from 8am to 4.59pm,\$1.60/entry from 5pm to 7.59am the following day,Charges same as weekdays,Closed,1.3072037,103.8668725
342,Millage,"55 Changi Road, S(419709)","\$1.20 for 1st hr, \$0.60 for next subsequent 30min or part thereof","\$1.20 for 1st hr, \$0.60 for next subsequent 30min or part thereof",Charges same as weekdays,Charges same as weekdays,1.316914,103.899011
343,Da Jin Factory Building,"362 Upper Paya Lebar Road, S(534963)",\$1.33/hr from 8am to 4.59pm,"\$1.63/entry from 5pm to 10pm, Car Park closed after 10pm",Charges same as weekdays,Closed,1.3480374,103.88147070000001
344,Civil Service Club (Changi Clubhouse),"2 Netheravon Road, S(508503)","(For Member): \$1.00/hr from 6am to 6pm, (For Public): \$2.40 for 1st hr, \$0.60 for next subsequent 15min from 6am to 6am the following day","(For Member): \$1.80/entry from 6pm to 3am the following day, \$1.50/hr from 3am to 6am (For Public): \$2.40 for 1st hr, \$0.60 for next subsequent 15min from 6am to 6am the following",Charges same as weekdays,Charges same as weekdays,1.391181,103.985639
345,Ayer Rajah Industrial Estate,Ayer Rajah Crescent,\$1.00/30min from 7am to 6pm,\$1.00/entry from 6pm to 7am the following day,\$1.00/entry from 7am to 7am the following day,\$1.00/entry from 7am to 7am the following day,1.2961175,103.7893216
346,North Bridge Centre,"420 North Bridge Road, S(188727)",\$1.50/30min from 8am to 4.59pm,\$4.00/entry from 5pm to 11pm,Charges same as weekdays,\$4.00/entry from 8am to 11pm,1.2971802,103.8549507
347,National Service Resort Country Club (NSRCC),"10 Changi Coast Walk, S(499739)","(For Member): Free, (For Public): \$2.15/entry from 6am to 5pm","(For Member): Free, (For Public): \$2.15/entry from 5pm to 12midnight",\$0.80/30min with max of \$12.80 from 6am to 12midnight,\$0.80/30min with max of \$12.80 from 6am to 12midnight,1.3179033000000002,103.974227
348,Techpoint,"10 Ang Mo Kio Street 65, S(569059)","\$2.14 for 1st hr, \$1.60 for next subsequent 30min from 8am to 5pm","\$2.14 for 1st hr, \$1.60 for next subsequent 30min from 5pm to 8am the following day",Charges same as weekdays,Charges same as weekdays,1.3894792,103.8491637
349,APS Industrial Building,"49 Jalan Pemimpin, S(577203)",\$1.65/hr from 8am to 4.59pm,\$1.80/entry from 5pm to 7.59am,Charges same as weekdays,Charges same as weekdays,1.3510243999999998,103.84178879999999
350,Rutherford Building,"89 Science Park Drive, S(118261)","\$1.60 for 1st hr, \$1.07 for next subsequent 30min from 8am to 5pm","\$1.60 for 1st hr, \$1.07 for next subsequent 30min from 5pm to 8am the following day",Closed,Closed,1.288147,103.791239
351,The Alpha (Science Park II),"10 Science Park Road, S(117684)","\$1.60 for 1st hr, \$1.20 for next subsequent hr from 7.30am to 7.30pm","\$1.60 for 1st hr, \$1.20 for next subsequent hr from 7.30am to 7.30pm","\$1.60 for 1st hr, \$1.20 for next subsequent hr from 7.30am to 7.30pm",Closed,1.2882828000000002,103.7796754
352,Teletech Park (Basement Car Park),"20 Science Park Road, S(117674)",\$1.20/hr from 8am to 8pm,\$1.20/hr from 8am to 8pm,Closed,Closed,1.2866523,103.7821784
353,The Aquarius,"21 Science Park Road, S(117628)","\$0.56 for 1st hr, \$1.07 for next subsequent hr from 7.30am to 7.30pm","\$0.56 for 1st hr, \$1.07 for next subsequent hr from 7.30am to 7.30pm",Closed,Closed,1.288665,103.781059
354,Comcentre / SingTel Building,"31 Exeter Road, S(239732)",Private Car Park,Private Car Park,Private Car Park,Private Car Park,1.2992667,103.83839240000002
355,Sea Sports Centre,"11 Changi Coast Walk, S(499740)",Free Parking,Free Parking,Free Parking,Free Parking,1.3163165,103.97742209999998
356,The Gemini,"41 Science Park Road, S(117610)","\$1.60 for 1st hr, \$1.07 for next subsequent 30min from 7.30am to 7.30pm","\$1.60 for 1st hr, \$1.07 for next subsequent 30min from 7.30am to 7.30pm",Closed,Closed,1.2886950000000001,103.78285699999999
357,Techview,"1 Kaki Bukit View, S(415941)","\$2.14 for 1st hr, \$1.60 for next subsequent 30min from 8am to 10pm","\$2.14 for 1st hr, \$1.60 for next subsequent 30min from 8am to 10pm",Charges same as weekdays,Charges same as weekdays,1.3365908000000002,103.9096041
358,The Aries,"51 Science Park Road, S(117586)","\$1.60 for 1st hr, \$1.07 for next subsequent 30min from 7.30am to 7.30pm",Free parking from 7.30pm to 7.30am the following day,Closed,Closed,1.287031,103.783162
359,JTC Blk 970 / 998 Toa Payoh North,"970 Toa Payoh North, S(318992)",\$0.60/30min from 7am to 10pm,\$2.00/entry from 10pm to 6.59am the following day,Charges same as weekdays,\$2.00/entry from 7am to 6.59am the following day,1.3427684,103.8510012
